POI_ID,ADD_ID,PLACENAME,PLACENAME2,ABBREVIATEDPLACENAME,BL_NAME,BL_CLASS,SERVICE_TYPE,PHOTOURL,URL,CONTACT,HOURS,LICENSE,MANAGE,STATUS,LEED,HTML,CREATED_USER,CREATED_DATE,LAST_EDITED_USER,LAST_EDITED_DATE,GLOBALID,BCN_CODE,BCN_LANDUSE,BCN_NOEMP,BCN_CLASS,LAT,LONG
POI-104,,University Endowment Lands,,UEL,,UEL,other,,,,,N,UEL,UEL,,,,,GISSTUD1,20180116204649,{4B7C5831-5AE2-444C-AD84-C4464F4EBD0E},,,,,-123.245229,49.270269
POI-143,,Wyman Plaza,,,,garden,plaza,,,,,N,UBC,Current,Civic,,,,GISSTUD1,20180116204650,{774893D5-B77F-4A92-B845-016107AA90EE},,,,,-123.255102,49.267623
POI-146,,Martha Piper Plaza,,,,garden,plaza,,,,,N,UBC,Current,Civic,,,,GISSTUD1,20180116204650,{93C0C35D-B899-4615-872C-D38E10FB2DC0},,,,,-123.252795,49.264795
POI-108,,Pacific Spirit Regional Park,,PSRP,,PSRP,park,,,,,N,Metro,UEL,,,,,GISSTUD1,20180116204650,{DB93B361-B233-4B2B-9E1F-87EDF321D2ED},,,,,-123.225461,49.251777
POI-103,,Wreck Beach,,,,beach,park,,,,,N,Metro,UEL,,,,,GISSTUD1,20180117193146,{F348E8EA-0EC4-45ED-AC17-98FD8E712C1D},DE5,Sports,,Urban Facilities,-123.261893,49.262279
POI-106,,Pacific Spirit Regional Park,,PSRP,,PSRP,park,,,,,N,Metro,UEL,,,,,GISSTUD1,20180117193145,{70F5A091-FEA7-4189-B67A-3D67DFB328AB},DE5,Sports,,Urban Facilities,-123.262499,49.265351
POI-107,,Tower Beach,,,,beach,park,,,,,N,Metro,UEL,,,,,GISSTUD1,20180117193145,{87527929-2C2B-4AAD-8CA7-BABEF413119F},DE5,Sports,,Urban Facilities,-123.256438,49.27403
POI-336,VAD10111,Caffe Perugia,,,Life Sciences Centre,,cafe,,http://www.food.ubc.ca/place/caffe-perugia,Phone: (604) 827-3291,M-Thur: 7:30am - 5pm; Fri: 7:30am - 4pm; Sat/Sun: Closed,N,SHHS,Current,Services,,,,PLAN,20200708210718,{45F8AEF7-0D53-46CD-8DD8-A872BAAF2706},CO4,Commercial,5-10,Legal Entities,-123.244823,49.262252
POI-250,VAD10230,Agora Cafe,,,HR MacMillan Building,,cafe,,http://blogs.ubc.ca/agora/,Phone: (604) 822-4651; Email: agora.eats@gmail.com,M-F (Sept-Apr): 9:30am - 3pm,N,UBC,Current,Services,,,,PLAN,20200708210718,{09CF8C8F-6A4C-46F8-88B2-CB1D7BAB3A4E},CO4,Commercial,5-10,Legal Entities,-123.251127,49.260915
POI-274,VAD10420,Bodyworks Fitness Centre,,,Robert F. Osborne Centre - Unit 1,,athletics,,https://kin.educ.ubc.ca/outreach/body-works/,Phone: (604) 827-5059; Email: kin.outreach@ubc.ca,M-F: 8:45am - 4:15pm,N,KIN,Current,Services,,,,PLAN,20200708210719,{F67DDA8D-7994-488A-87D8-1042CF0AE03A},CO16,Commercial,5-10,Legal Entities,-123.243701,49.26028
POI-4,VAD10220,JJ Bean,JJ Bean Coffee,,Central,,cafe,,https://jjbeancoffee.com/our-locations/ubc/,Phone: (604) 559-9252; Email:  info@jjbeancoffee.com,,UC,Non-UBC,UC,Services,,,,PLAN,20200708210719,{C749D6A9-B7AC-42CF-9C58-16ED42FDC561},CO4,Commercial,10-15,Legal Entities,-123.24724,49.266243
POI-5,VAD10094,Jamjar,Jamjar Canteen,,Central,,cafe,,http://www.jam-jar.ca/,Phone: (604) 620-5320,Daily: 11:30am - 10pm; Closed Public Holidays,UC,Non-UBC,UC,Services,,,,PLAN,20200708210719,{47EE5981-2D2D-41F1-BD60-4CF5B4025C81},CO2,Commercial,10-15,Legal Entities,-123.247432,49.266218
POI-7,VAD10092,Tacomio,,,Central,,cafe,,http://www.tacomio.ca/,Needs Updating,,UC,Non-UBC,UC,Services,,,,PLAN,20200708210719,{8AA181CB-4837-42D9-B541-4AF638E72B91},CO2,Commercial,10-15,Legal Entities,-123.247137,49.266256
POI-8,VAD11103,Corner Store,,,UBC Bookstore,,minimart,,http://shop.bookstore.ubc.ca/c-471-corner-store.aspx,Phone: (604) 822-2665,Mon/Tues/Thurs/Fri: 8:30am - 6pm; Wed: 8:30am - 7pm; Sat: 11am - 5pm; Sun: Close,N,SHHS,Current,Retail,,,,PLAN,20200708210719,{30FE8410-E335-4F5C-81FF-6B3096097F7B},CO10,Commercial,0-5,Legal Entities,-123.250785,49.265213
POI-9,VAD10281,Starbucks,,,Fred Kaiser,,cafe,,http://www.food.ubc.ca/place/starbucks/,Phone: (604) 827-5779,M-F: 7am - 3pm,N,SHHS,Current,Services,,,,PLAN,20200708210719,{1CEC9032-78EA-41B4-BBDB-DCB93C180CC5},CO4,Commercial,10-15,Legal Entities,-123.250241,49.262346
POI-12,VAD11103,Starbucks,Starbucks Bookstore,,UBC Bookstore,,cafe,,http://www.food.ubc.ca/place/starbucks/,Phone: (604) 822-0552,M-F: 6:30am - 7:30am; Sat: 10:00am - 5pm; Sun: Closed,N,SHHS,Current,Services,,,,PLAN,20200708210719,{EC2F8E91-E17E-4AA7-A6AC-F9450786C159},CO4,Commercial,10-15,Legal Entities,-123.250549,49.265297
POI-49,VAD11083,Koerner's Pub,,,Thea Koerner House,,restaurant,,http://koerners.ca/,Phone: (604) 827-1443; Email: info@koerners.ca,M-W: 11:30am - 10pm; Thur-Fri: 11:30am - 1am; Sat/Sun: Closed,Y,Non-UBC,Current,Services,,,,PLAN,20200708210719,{5D1336D9-17DA-4687-9317-3CF51760BEFF},CO6,Commercial,15-20,Legal Entities,-123.258074,49.268314
POI-296,VAD11148,Conferences & Accommodation at UBC,,,Walter Gage Residence,,commercial_services,http://www.infrastructuredevelopment.ubc.ca/rrs2/photos/872-2.jpg,http://www.ubcconferences.com/,Phone: (604) 822-1060; Email: conferences@housing.ubc.ca; Fax: (604) 822-1001,,N,SHHS,Current,Services,,,,PLAN,20200708210724,{190A6995-0BAD-489B-B989-204BF8E14992},,,,,-123.248641,49.269439
POI-264,VAD10455,Birdcoop Fitness Center,,,Student Recreation Centre,,athletics,http://www.infrastructuredevelopment.ubc.ca/rrs2/photos/774.jpg,http://www.recreation.ubc.ca/fitness/,Phone: (604) 822-6924; Email: birdcoop.fitnesscentre@ubc.ca,(Sep 1-Apr 30) M-Th: 6:30am–10pm; Fri: 6:30am-9pm; Sat: 10am-8pm; Sun: 10am-7pm,N,Athletics,Current,Services,,,,PLAN,20200708210724,{AE79F04A-4306-4184-AB3E-4FC56E019209},CO16,Commercial,10-15,Legal Entities,-123.248788,49.268359
POI-339,VAD10120,Blenz,,,MBA House,,cafe,,https://blenz.com/locations/?store_id=56,Phone: (604) 568-2660,M-Thurs: 6:30am - 10pm; Fri: 6:30am - 9:30pm; Sat/Sun: 7am - 9:30pm,Y,Non-UBC,Current,Services,,,,PLAN,20200708210724,{84594E42-5697-4297-B826-7DF556F8D721},CO4,Commercial,10-15,Legal Entities,-123.235083,49.254027
POI-179,VAD10180,Roy Barnett Recital Hall,,,Music Building,,attractions,http://www.infrastructuredevelopment.ubc.ca/rrs2/photos/575.jpg,http://www.music.ubc.ca/about-us/facilities/roy-barnett-recital-hall.html,,,N,UBC,Current,Civic,,,,PLAN,20200708210724,{9BD82704-896B-41CD-BB9F-D95F2103B660},CO12,Commercial,5-10,Legal Entities,-123.256806,49.267439
POI-189,VAD10178,Morris and Helen Belkin Art Gallery,,,Morris and Helen Belkin Art Gallery,,attractions,http://www.infrastructuredevelopment.ubc.ca/rrs2/photos/568.jpg,http://belkin.ubc.ca,belkin.gallery@ubc.ca</br>Phone: (604) 822-2759,Mon: Closed; Tues - Fri: 10am - 5pm; Sat/Sun: 12pm - 5pm,N,UBC,Current,Civic,,,,PLAN,20200708210724,{CCB99D88-0F4E-4B62-A2FC-F0C4F13F125C},CO12,Commercial,5-10,Legal Entities,-123.256166,49.268136
POI-280,VAD10616,The Aviary,,,"AMS Nest, Level 2",,commercial_services,,http://www.facebook.com/aviaryUBC,,,N,AMS,Current,Services,,,,PLAN,20200708210725,{026CC965-90D4-4894-B4EA-EF81C89BCE1E},CO15,Commercial,5-10,Legal Entities,-123.249553,49.26645
POI-190,VAD11106,Norm Theatre,,,Student Union Building,,attractions,http://www.infrastructuredevelopment.ubc.ca/rrs2/photos/790.jpg,http://www.ams.ubc.ca,webeditor@ams.ubc.ca</br>Phone: (604) 822-2901,,N,AMS,Current,Civic,,,,PLAN,20200708210724,{BE4940A4-357B-4A70-AC7A-C6F3ACC76060},CO12,Commercial,0-5,Legal Entities,-123.250105,49.267434
POI-253,VAD10616,Delly,,,"AMS Nest, Lower Level",,cafe,,,,,N,Non-UBC,Current,Services,,,,PLAN,20200708210724,{96213968-CA27-4923-ADE4-4ED848AD279F},CO2,Commercial,10-15,Legal Entities,-123.249593,49.266497
POI-37,VAD10184,Neville's Cafe,Neville's,,Scarfe,,cafe,,http://www.food.ubc.ca/place/nevilles/,Phone: (604) 827-3325,,N,SHHS,Current,Services,,,,PLAN,20200708210725,{08C9BB9A-33B0-41EA-9D62-AA050F035C7D},CO4,Commercial,5-10,Legal Entities,-123.253132,49.264216
POI-311,VAD11147,Gage Mini Mart,,,Walter Gage Residence,,minimart,,http://www.food.ubc.ca/place/gage-mini-mart/,Phone: (604) 822-5494,,N,SHHS,Current,Retail,,,,PLAN,20200708210725,{18265590-BFCE-4A08-A67F-29F0779FA526},CO10,Commercial,0-5,Legal Entities,-123.249617,49.269436
POI-313,VAD11095,Magda's Mini Mart,,,Totem Park Residence Front Desk,,minimart,,http://www.food.ubc.ca/place/magdas/,Phone: (604) 822-4221,,N,SHHS,Current,Retail,,,,PLAN,20200708210725,{4E99CD59-93BB-49F9-A0C1-2D46D4C32D5B},CO10,Commercial,0-5,Legal Entities,-123.252812,49.25788
POI-320,VAD10616,Ph Tea,,,"AMS Nest, Level 1",,cafe,,http://www.ams.ubc.ca/foodanddrink/phtea/,,,N,AMS,Current,Services,,,,PLAN,20200708210725,{BC16939D-BF25-463C-9D75-C61DE31D757A},CO4,Commercial,5-10,Legal Entities,-123.249967,49.266783
POI-327,VAD11106,Pacific Spirit Place,,,Student Union Building,,cafe,,,,,N,SHHS,Current,Services,,,,PLAN,20200708210725,{EAFB3E66-E4B0-4F95-8BE9-21787EAF0C0A},CO2,Commercial,10-15,Legal Entities,-123.24976,49.267392
POI-328,VAD10080,Starbucks,,,TEF3,,cafe,,http://www.food.ubc.ca/place/starbucks/,,,N,SHHS,Current,Services,,,,PLAN,20200708210725,{8F326C48-E886-46E6-B9BD-E0521BA45E34},CO4,Commercial,10-15,Legal Entities,-123.246604,49.261228
POI-329,VAD10841,Stir It Up,,,Buchanan Building,,cafe,,http://www.food.ubc.ca/place/stir-it-up-cafe/,,,N,SHHS,Current,Services,,,,PLAN,20200708210725,{F442B712-D1C2-4D47-895B-6A97936B865C},CO4,Commercial,5-10,Legal Entities,-123.254858,49.268511
POI-346,VAD10616,Pie R Squared,,,"AMS Nest, Level 1",,cafe,,http://www.ams.ubc.ca/foodanddrink/piersquared/#,,,N,AMS,Current,Services,,,,PLAN,20200708210725,{8B958808-DA93-4499-AF51-D4DD136C5ACC},CO3,Commercial,10-15,Legal Entities,-123.249873,49.266236
POI-347,VAD10616,Grand Noodle Emporium,,,"AMS Nest, Lower Level",,cafe,,http://www.ams.ubc.ca/foodanddrink/grandnoodle/,,,N,AMS,Current,Services,,,,PLAN,20200708210725,{19D79BC1-5F50-4EA9-883E-8885AF4B3BD9},CO2,Commercial,10-15,Legal Entities,-123.249901,49.266707
POI-348,VAD10616,TBD (formerly Qoola),,,"AMS Nest, Level 1",,cafe,,http://www.qoola.com,,,N,Non-UBC,Current,Services,,,,PLAN,20200708210725,{89BB16C4-24C1-443C-84E4-873EEC0D9C7E},,,,,-123.24947,49.26635
POI-350,VAD10616,Liquid Nutrition,,,"AMS Nest, Level 1",,cafe,,http://www.liquidnutrition.com/,,,N,Non-UBC,Current,Services,,,,PLAN,20200708210725,{AEA449DA-F506-41F9-B004-5ECE8CC44BB4},CO4,Commercial,5-10,Legal Entities,-123.249769,49.266702
POI-352,VAD10616,Palate,,,"AMS Nest, Level 1",,cafe,,http://www.ams.ubc.ca/foodanddrink/palate/,,,N,AMS,Current,Services,,,,PLAN,20200708210726,{8EF5DE45-F9A0-446F-9A55-1CB8187D30AA},CO4,Commercial,5-10,Legal Entities,-123.250001,49.266824
POI-82,VAD11103,UBC Bookstore,,,Bookstore,,retail,http://www.infrastructuredevelopment.ubc.ca/rrs2/photos/081.jpg,http://www.bookstore.ubc.ca/home,Phone: 1 800 661-3889,M-F: 9.30am - 5.30pm; Sat: 11:00am - 5pm,N,UBC,Current,Retail,,,,PLAN,20200708210720,{4C6A9126-866C-47AF-A09E-DCC2F7E2EDEE},CO14,Commercial,15-20,Legal Entities,-123.250537,49.265301
POI-75,VAD10276,Tim Hortons,,,Forest Sciences Centre,,cafe,,http://www.food.ubc.ca/place/tim-hortons/,Phone: (604) 822-1953,M-F: 7am - 6pm,N,SHHS,Current,Services,,,,PLAN,20200708210719,{9B07E362-B46E-4B61-8109-1AD00322551E},CO4,Commercial,10-15,Legal Entities,-123.248458,49.260271
POI-76,VAD10169,Harvest,,,Ponderosa Commons Oak House,,minimart,,http://www.food.ubc.ca/place/harvest/,Phone: (604) 827-3007,Mon-Sun: 7am - 10pm,N,SHHS,Current,Retail,,,,PLAN,20200708210720,{B409A3D5-C316-4060-ACE5-F86EC20D04E1},CO9,Commercial,10-15,Legal Entities,-123.255742,49.263983
POI-87,VAD10075,Insure BC,,,Tapestry,,commercial_services,,http://www.insurebc.ca/,Phone: (604) 221-7080; Fax: (604) 221-7082,M-F: 8:30am - 6pm; Sat: 10am - 6pm; Sun: Closed,Y,Non-UBC,Current,Services,,,,PLAN,20200708210720,{777386E5-2569-4FB9-87AC-1D3260D79EA7},CO15,Commercial,5-10,Legal Entities,-123.235364,49.254845
POI-89,VAD10073,éliane Hair & Spa,,,Tapestry,,commercial_services,,http://www.elianehairspa.ca/,Phone: (604) 225-5007,"Mon, Tues, Wed, Sat: 9am - 6pm; Thurs, Fri: 9am -7pm; Sun: Closed",Y,Non-UBC,Current,Services,,,,PLAN,20200708210720,{EFFB852F-CEAB-4A93-AA43-32E0EBE35D5A},CO15,Commercial,5-10,Legal Entities,-123.234883,49.25452
POI-90,VAD10067,University Barbershop,,,Mews,,commercial_services,,http://www.theuniversitybarbershop.com/,Phone: (604) 428-3800; Email: info@theuniversitybarbershop.com,M-Wed: 10am - 6pm; Thurs-Fri: 10am - 7pm; Sat: 10am - 6pm; Sun: 11am - 6pm,Y,Non-UBC,Current,Services,,,,PLAN,20200708210720,{9A8DB459-491E-4A20-BBF0-7A2175E71727},CO15,Commercial,0-5,Legal Entities,-123.235584,49.254647
POI-93,VAD10616,Grocery Checkout,,,"AMS Nest, Level 1",,grocery,,http://www.facebook.com/GCIVancouver,Phone: (778) 654-4900,M-F: 8:30am - 7:00pm; Sat/Sun: 10am - 5pm,N,Non-UBC,Current,Food,,,,PLAN,20200708210720,{688ABDC9-CFA8-4F98-8BEE-E65A4AEF3686},CO9,Commercial,5-10,Legal Entities,-123.249311,49.26628
POI-94,VAD10061,Wesbrook Cleaners,,,Mews,,commercial_services,,http://www.discoverwesbrook.com/posts/wesbrook-cleaners#.WWPJvojyvcs,Phone: (604) 732-9020,M-F: 8:30am - 6pm; Sat: 9am - 5pm; Sun: Closed,Y,Non-UBC,Current,Services,,,,PLAN,20200708210720,{E68498A6-A8B2-40F4-9D59-61A504D133C5},CO15,Commercial,0-5,Legal Entities,-123.235504,49.25455
POI-95,VAD10081,Kabro Salon,,,Mews,,commercial_services,,http://www.kabrosalon.com/,Phone: (604) 428-4888; Email: info@kabrosalon.com,"Mon, Sat: 10am - 6pm; Thurs, Fri: 10am - 7pm; Sun: 11am - 6pm",Y,Non-UBC,Current,Services,,,,PLAN,20200708210720,{FD08CE4C-9DF1-4451-86F6-BEE83822418A},CO15,Commercial,0-5,Legal Entities,-123.235626,49.254699
POI-97,VAD10076,Wesbrook Eyecare,,,Mews,,retail,,http://wesbrookeyecare.com/,Phone: (604) 558-3937,M-F: 10:30am - 6pm; Sat: 11am - 5pm; Sun: Closed,Y,Non-UBC,Current,Retail,,,,PLAN,20200708210720,{F6115622-9329-45E0-AFC7-B9FB4B5C52D4},CO14,Commercial,0-5,Legal Entities,-123.235443,49.254476
POI-14,VAD10831,Building Access (Key Desk),,,UBC Bookstore,,campus_services,,https://parking.ubc.ca/building-access-0,Phone: (604) 822-6786; Fax: (604) 827-2509; Email: parking.support@ubc.ca,M-F: 9:30am-5:30pm (Wed until 7pm); Sat: 11am-5pm; 3rd Thurs/month: 11am-5:30pm,N,UBC,Current,Services,,,,PLAN,20200708210721,{7C2024FF-4109-4C88-A844-3E6C1789886A},,,,Academic,-123.250621,49.265047
POI-26,VAD10825,Campus and Community Planning,,,Campus and Community Planning,,campus_services,,https://planning.ubc.ca/vancouver,Phone: (604) 822-8228; Email: info.planning@ubc.ca; Fax: (604) 822-6119,M-F: 8:30am - 4:30pm,N,UBC,Current,Civic,,,,PLAN,20200708210720,{D26D0458-6076-4871-BCB9-2FC5344562B4},,,,Academic,-123.253195,49.26237
POI-99,VAD11066,Fido,,,Mews,,retail,,http://www.fido.ca/,Phone: (604) 307-7775,M-Sat: 10am - 6pm; Sun: 11am - 5pm,Y,Non-UBC,Current,Retail,,,,PLAN,20200708210720,{29423668-84F5-4FFD-8704-580624ADE700},CO14,Commercial,0-5,Legal Entities,-123.235868,49.25483
POI-11,VAD10281,"Applied Science, Faculty of",,,Fred Kaiser Building,,faculty/school,,https://apsc.ubc.ca/,Phone: (604) 822-6413; Email: info@apsc.ubc.ca,,N,UBC,Current,Services,,,,PLAN,20200708210721,{E68CC851-FC4B-4396-B49B-E391952B0C94},,,,Academic,-123.250076,49.262344
POI-102,VAD10563,Mahony and Sons,,,Strangway,,restaurant,,http://mahonyandsons.com/,Phone: (604) 827-4444,"M-Wed: 11am - 12am, Th-F: 11am - 1am; Sat: 12pm - 1am; Sun: 12pm - 11pm",Y,Non-UBC,Current,Services,,,,PLAN,20200708210721,{35FA73FD-A587-4BD9-A726-3D5DC7648FB4},CO6,Commercial,15-20,Legal Entities,-123.246716,49.265965
POI-115,VAD10559,Triple O's,,,David Lam,,cafe,,http://www.food.ubc.ca/place/triple-o/,Phone: (604) 822-3256,M-F: 11am - 7pm; Sat/Sun: 11am - 5pm,N,SHHS,Current,Services,,,,PLAN,20200708210721,{BE3ECA43-4EDE-4778-9352-29F8C6E57E94},CO3,Commercial,10-15,Legal Entities,-123.254398,49.265889
POI-116,VAD10014,Sauder Exchange Cafe,,,Henry Angus,,cafe,,http://www.food.ubc.ca/place/sauder-exchange-cafe/,Phone: (604) 827-4783,M-F: 8am - 3pm; Sat/Sun: Closed,N,SHHS,Current,Services,,,,PLAN,20200708210721,{AB3D4ADC-C55E-4DEC-A40C-884DC23D2CEF},CO4,Commercial,5-10,Legal Entities,-123.253728,49.265218
POI-119,VAD11030,Tim Hortons,,,David Lam,,cafe,,http://www.food.ubc.ca/place/tim-hortons/,Phone: (604) 822-3256,M-F: 7am - 4pm; Sat/Sun: Closed ,N,SHHS,Current,Services,,,,PLAN,20200708210721,{07E72BB9-B6E5-4E0F-9C3F-370BA5207856},CO4,Commercial,10-15,Legal Entities,-123.254283,49.26578
POI-137,VAD10886,Telus Studio Theatre,,,Chan Centre for the Performing Arts,,attractions,,http://chancentre.com/about/,,,N,UBC,Current,Civic,,,,PLAN,20200708210721,{B7562F63-F65A-4BD5-9BB7-5A86C01BAE65},CO12,Commercial,0-5,Legal Entities,-123.255071,49.269781
POI-138,VAD10886,Royal Bank Cinema,,,Chan Centre for the Performing Arts,,attractions,,http://chancentre.com/about/,,,N,UBC,Current,Civic,,,,PLAN,20200708210721,{EDD99735-EF8E-448D-9B52-D75976CECD4C},CO12,Commercial,0-5,Legal Entities,-123.255071,49.269781
POI-139,VAD10886,Chan Shun Concert Hall,,,Chan Centre for the Performing Arts,,attractions,,http://chancentre.com/about/,,,N,UBC,Current,Civic,,,,PLAN,20200708210721,{DFEF43A3-3B2A-4E02-B556-9E428AFF49B9},CO12,Commercial,10-15,Legal Entities,-123.255071,49.269781
POI-68,VAD10840,Career Services,,,Brock Hall,,campus_services,,https://students.ubc.ca/about-student-services/centre-student-involvement-careers,Phone: (604) 822-4011,M-Th: 9am-5:30pm; Fri: 9am-5pm,N,UBC,Current,,,,,PLAN,20200708210721,{381A2C2C-D5E4-4315-A622-0A7AA5F31DD2},,,,Academic,-123.252197,49.268632
POI-142,VAD10161,Lobby Gallery,,,Lui Institute for Global Issues,,attractions,,,,,N,UBC,Current,,,,,PLAN,20200708210721,{44FE5CAC-88C5-40FB-8F86-31BF1ACDD172},CO12,Commercial,0-5,Legal Entities,-123.259288,49.267565
POI-153,VAD11092,UBC Ropes Course,,,,garden,athletics,http://www.flickr.com/photos/26230969@N08/3505922720/in/photostream/,http://www.palropescourse.com/,Email: info@palropescourse.com,,N,Non-UBC,Current,Services,,,,PLAN,20200708210721,{FB3D4E7E-2D31-499B-AF19-7FC817139DED},CO16,Commercial,5-10,Legal Entities,-123.242797,49.254219
POI-166,VAD10072,Roger's Chocolates,,,Mews,,retail,,https://www.rogerschocolates.com/,Phone: (604) 222-9605,M-Thurs: 10am - 5pm; Fri-Sat: 10am - 6pm; Sun: 12pm - 5pm,Y,Non-UBC,Current,Retail,,,,PLAN,20200708210722,{09CDF634-5E2E-4171-8118-39AE60A663B5},CO14,Commercial,0-5,Legal Entities,-123.236008,49.25461
POI-345,VAD10616,Soup Market,,,"AMS Nest, Level 1",,cafe,,,Phone: (604) 446-2433,M-F: 10am-4pm,N,Non-UBC,Current,Services,,,,PLAN,20200708210722,{58E83A27-3F54-49B3-A77C-461A7E6170A3},CO4,Commercial,10-15,Legal Entities,-123.249934,49.266746
POI-185,VAD10427,The Bosque,,,,garden,wood,,,,,N,UBC,Current,,,,,PLAN,20200708210722,{46923F7E-8299-49DD-9A58-32EECE15F9D1},,,,,-123.251216,49.26723
POI-173,VAD11106,The Bike Kitchen,,,Bike Kitchen,,commercial_services,,http://thebikekitchen.com/,"Phone : (604) 827-7333
; Email : bikekitchen@gmail.com",M-F: 10am - 6pm; Sat: 11am - 6pm,N,AMS,Current,Services,,,,PLAN,20200708210722,{AE25875E-79BD-4A5E-BBEC-1D5A727A6054},CI5,Civic,0-5,Legal Entities,-123.252137,49.268325
POI-174,VAD10440,St. Mark's Parish,,,St. Mark's College,,worship,,http://www.stmarksparishvancouver.ca/,Phone: (604) 822-0261; Email: parish.smark@rcav.org,M-F: 12:10pm; Sunday: 9:30am,N,Non-UBC,Current,Civic,,,,PLAN,20200708210722,{4015E668-912A-4127-9BC7-086291C4964E},CI1,Civic,0-5,Legal Entities,-123.248943,49.272161
POI-215,VAD11023,One More Sushi ,,,University Village,,restaurant,,http://onemoresushi.ca/,Phone: (604) 228-9772; Fax: (604) 228-9773,M-F: 11am - 3pm & 5pm - 10pm; Sat: 12pm - 10pm; Sun: Closed,N,UEL,UEL,Services,,,,PLAN,20200708210722,{DAC37D9B-7071-45C1-9235-084AF94B5290},CO2,Commercial,10-15,Legal Entities,-123.242527,49.266024
POI-216,VAD11023,Subway,,,University Village,,cafe,,http://www.food.ubc.ca/place/subway/,Phone: (604) 620-8948,M-F: 7am - 10pm; Sat/Sun: 9am - 10pm,N,UEL,UEL,Services,,,,PLAN,20200708210722,{A2E6A5A5-B442-4DA4-9895-1F99489415BC},CO3,Commercial,10-15,Legal Entities,-123.243203,49.265896
POI-218,VAD11023,Booster Juice,,,University Village,,cafe,,http://boosterjuice.com/,Phone: (604) 568-6603,M-F: 8am - 9pm; Sat: 9am - 9pm; Sun: 10am - 6pm,N,UEL,UEL,Services,,,,PLAN,20200708210722,{6AD34C9D-6C74-4765-B5DB-A82F7DB204B8},CO4,Commercial,10-15,Legal Entities,-123.242835,49.266075
POI-219,VAD10891,Only U Cafe,,,University Village,,cafe,,http://www.facebook.com/pages/Only-U-Cafe/431021496919221,Phone: (604) 221-6511,M-F: 8am - 5pm; Sat: Closed; Sun: 10am - 3pm,N,UEL,UEL,Services,,,,PLAN,20200708210722,{DA6EDE95-BFE1-4213-8589-98BDF024B62F},CO4,Commercial,5-10,Legal Entities,-123.242381,49.265977
POI-223,VAD10891,Gold's Gym,,,University Village,,commercial_services,,http://goldsgymbc.ca/,Phone: (604) 224-4699; Email: info@goldsgymbc.ca,M-F: 6am - 11pm; Sat/Sun: 7am - 9pm,N,UEL,UEL,Services,,,,PLAN,20200708210722,{63324E0A-ADB6-4EA6-88EC-12F84D3058CB},CO16,Commercial,10-15,Legal Entities,-123.242308,49.26632
POI-24,VAD11103,Farmer's Market,,,Bookstore,,farmers market,,http://ubcfarm.ubc.ca/food-production/farm-markets/,farm.team@ubc.ca,June 7-November 1 Wed: 11:30am - 1:30pm,N,UBC,Current,Retail,,,,PLAN,20200708210722,{372E8D82-2F79-484D-9F38-6A1D13279E43},CO9,Commercial,5-10,Legal Entities,-123.250424,49.265438
POI-57,VAD10382,English Language Institute (ELI),,,Continuing Studies Building,,department,,https://eli.ubc.ca/,Phone: (604) 822-1555; Email: https://eli.ubc.ca/contact-us; Fax: (604) 822-1579,M-F: 8:30am - 4:30pm; Sat/Sun: Closed,N,UBC,Current,,,,,PLAN,20200708210722,{59DE3047-7E99-462C-BB4D-70B4274319C0},CI1,Civic,10-15,Legal Entities,-123.254954,49.263365
POI-212,VAD11023,Regent College,,,Regent College,,commercial_services,,http://www.regent-college.edu/,Phone: (604) 224-3245; Email: admissions@regent-college.edu,,N,UEL,UEL,Services,,,,PLAN,20200708210723,{1FA44768-B76B-4E08-AB7A-1A1949226087},CI1,Civic,15-20,Legal Entities,-123.244084,49.265675
POI-499,VAD10616,Honour Roll,Honour Roll Sushi,,"AMS Nest, Level 1",,restaurant,,http://www.food.ubc.ca/place/peko-peko/,Phone: (604) 827-5589,M-S: 10am - 6pm; Sun: Closed,N,AMS,Current,Services,,,,PLAN,20200708210723,{28ABA3B5-8865-4A64-8C0D-AABAEA688705},CO2,Commercial,10-15,Legal Entities,-123.250198,49.266892
POI-29,VAD10831,Campus Security (Lost and Found),,,UBC Bookstore,,campus_services,http://www.infrastructuredevelopment.ubc.ca/rrs2/photos/337.jpg,http://www.security.ubc.ca/,(604) 822-2222,7:30am - 6:30pm,N,UBC,Current,Civic,,,,PLAN,20200708210723,{00DCD2A0-0644-4E24-A3C1-BA8EBB9AFDCF},,,,Academic,-123.250681,49.264875
POI-55,VAD10412,Building Operations ,,,University Services Building,,campus_services,,http://buildingoperations.ubc.ca/,Phone: (604) 822-2172; Email: servicecentre.buildingops@ubc.ca,,N,UBC,Current,Civic,,,,PLAN,20200708210723,{2E9BFE43-2143-45CF-B180-FC6000C42B47},,,,Academic,-123.253719,49.261289
POI-59,VAD10841,Arts Academic Advising,,,Buchanan Building,,campus_services,,http://students.arts.ubc.ca/advising/,Phone: (604) 822-4028; Email (Aboriginal Students): arts.aboriginal@ubc.ca; Fax: (604) 822-4923,M-F: 9am - 4:30pm,N,UBC,Current,Civic,,,,PLAN,20200708210723,{FA3459A2-F646-4A85-8EC3-4DE701C1AC82},,,,Academic,-123.254213,49.2693
POI-84,VAD10889,Campus Sustainability Office,,,Centre for Interactive Research on Sustainability,,campus_services,,https://sustain.ubc.ca/,Phone: (604) 822-9376; Email: usi.office@ubc.ca,,N,UBC,Current,Civic,,,,PLAN,20200708210723,{97EF4378-2411-4F22-98D1-324961E2B903},,,,Academic,-123.25311,49.262049
POI-351,VAD10616,Iwana Taco,,,"AMS Nest, Lower Level",,cafe,,http://www.ams.ubc.ca/foodanddrink/flipside/,Phone: (604) 822-0134; Email: flipside@ams.ubc.ca,M-F: 11am - 5pm,N,AMS,Current,Services,,,,PLAN,20200708210723,{254D5098-C6D5-4273-853E-D47164F61302},CO2,Commercial,10-15,Legal Entities,-123.250027,49.266857
POI-86,VAD10774,Hot Box Yoga,,,Wesbrook Professional Centre,,commercial_services,,http://www.thehotboxyoga.com/,Phone: 1-844-484-9642; Email: info@thehotboxyoga.com,For Hours See: http://www.thehotboxyoga.com/schedule/?options%5Blocation%5D=2,Y,Non-UBC,Current,Services,,,,PLAN,20200708210723,{E00BE9B2-CA37-45F4-8FF4-0A1CBB849D1E},CO16,Commercial,5-10,Legal Entities,-123.236409,49.254474
POI-249,VAD10567,The Original Beanery,,,Fairview Crescent Residence,,cafe,,,Phone: (604) 224-2326,M-Thurs: 7:30am-9pm; Fri: 7:30am-7pm; Sat-Sun: 8:30am-7pm,Y,Non-UBC,Current,Services,,,,PLAN,20200708210717,{5C2BF04C-7397-4C25-80BD-BB821D5A78A6},CO4,Commercial,5-10,Legal Entities,-123.239468,49.263599
POI-269,VAD11122,Roseline Sturdy Amphitheatre,,,Botanical Garden,garden,plaza,,http://botanicalgarden.ubc.ca/rentals/facilities/roseline-sturdy-amphitheatre/,Phone: (604) 827-3907; Email: garden.programs@ubc.ca,,N,UBC,Current,,,,,PLAN,20200708210718,{B5F26D78-12CB-4C00-8581-95E7F3D618E3},,,,,-123.24726,49.254511
POI-1,VAD10219,Rain or Shine,Rain or Shine Ice Cream,,Central,,cafe,,http://rainorshineicecream.com/,Phone: Needs Updating; Email: human@rainorshineicecream.com,Daily: 12pm - 10pm,UC,Non-UBC,UC,Services,,,,PLAN,20200708210718,{4BF7829B-8D73-4A53-8E32-808A15889B48},CO1,Commercial,5-10,Legal Entities,-123.247377,49.266225
POI-2,VAD10091,Nori,,,Central,,cafe,,https://www.facebook.com/pg/noriubc/about/?ref=page_internal,Needs Updating,M-F: 10am - 9pm; Sat: Closed; Sun: 11am - 5pm,UC,Non-UBC,UC,Services,,,,PLAN,20200708210718,{4DD512C1-7BC5-4F4B-A0C6-4BA81C0FCFE3},CO2,Commercial,10-15,Legal Entities,-123.247587,49.266199
POI-338,VAD10560,Boulevard Coffee,,,David Strangway Building,,cafe,,http://www.theboulevard.ca/index.html,Phone: (604) 827-4488; Email: info@theboulevard.ca,Daily: 7am - 7pm; Holidays: 8am - 6pm,Y,Non-UBC,Current,Services,,,,PLAN,20200708210718,{FED3CAFE-ABD3-49B0-87C7-48F9968FBEDC},CO4,Commercial,10-15,Legal Entities,-123.24641,49.266011
POI-344,VAD11033,Ami Cafe,,,Djavad Mowafaghian Centre for Brain Health,,cafe,,http://cafeami.ca/cafe-ami-university-of-british-columbia/,Phone: (604) 822-2348; Email: CafeAmiGroup@gmail.com; Fax: (604) 822-2326,M-F: 7:00am - 5:00pm,N,Non-UBC,Current,Services,,,,PLAN,20200708210718,{843C6E86-6B37-413A-863A-A566A3EB2415},CO4,Commercial,5-10,Legal Entities,-123.244472,49.264615
POI-117,VAD11030,TBD,,,David Lam,,cafe,,,<Null>,,N,SHHS,Current,Services,,,,PLAN,20200708210732,{323242F3-FC10-48A8-A362-32DE6EEBEA01},,,,,-123.254283,49.26578
POI-36,VAD11032,Detwiller Pavilion,,,Detwiller Pavilion,,medical,,http://www.vch.ca/Locations-Services/result?res_id=990,Phone: (604) 822-7121; Fax: (604) 822-7653,,N,VCH,Current,Civic,,,,PLAN,20200708210732,{84D4D681-34B4-4DB4-83BD-D270261CB5B0},SD1,Health,,Urban Facilities,-123.244392,49.263549
POI-50,VAD11083,Seedlings,,,Thea Koerner House,,restaurant,,http://www.ubcsprouts.ca/seedlings/,,M-F: 9:30am - 4pm; Sat/Sun: Closed,N,Non-UBC,Current,Services,,,,PLAN,20200708210732,{37B3B24D-2FB0-4145-A109-1C0FC64DAC25},CO2,Commercial,0-5,Legal Entities,-123.257832,49.268322
POI-114,VAD11030,TBD,,,David Lam,,cafe,,,,,N,SHHS,Current,Services,,,,PLAN,20200708210732,{02DA7E22-B492-4785-96BB-04C23EF2144F},,,,,-123.254283,49.26578
POI-171,VAD10616,The Pit,,,"AMS Nest, Lower Level",,restaurant,,http://www.the-pit.ca/,,,N,AMS,Current,Services,,,,PLAN,20200708210732,{5DED41C4-AD99-432F-A8FD-D78340DD46D6},CO6,Commercial,15-20,Legal Entities,-123.250105,49.266761
POI-251,VAD10080,Fit For Life,,,TEF3,,minimart,,fitforlifefood.com,,M-Sat: 8am - 8:30pm; Sun: 9am - 6:30pm,Y,Non-UBC,Current,Retail,,,,PLAN,20200708210732,{B12C92AD-DD9A-4914-9A0B-D4CD6C8AEB35},CO10,Commercial,0-5,Legal Entities,-123.246477,49.26134
POI-252,VAD10616,INS Market,,,"AMS Nest, Lower Level",,minimart,,,,,N,Non-UBC,Current,Retail,,,,PLAN,20200708210732,{7196B95C-BC60-4905-AFD7-F34DD9932076},CO10,Commercial,5-10,Legal Entities,-123.249792,49.266573
POI-150,VAD11126,"Nursing, School of",,,UBC Hospital - Koerner Pavilion,,faculty/school,,https://nursing.ubc.ca/,Phone: (604) 822-7417; Email: https://nursing.ubc.ca/questions/contact-us; Fax: (604) 822-7466,,N,UBC,Current,Civic,,,,PLAN,20200708210732,{C0D91878-104E-44CA-866C-D8A06A3D97A5},,,,Academic,-123.245961,49.26413
POI-151,VAD10401,"Population and Public Health, School of (SPPH)",,,SPPH,,faculty/school,,http://spph.ubc.ca/,Phone: (604) 822-2772; Email: info@spph.ubc.ca; Fax: (604) 822-4994,,N,UBC,Current,Civic,,,,PLAN,20200708210732,{75E4E743-70AC-46DE-B268-8B092CBF115D},,,,Academic,-123.2484,49.264256
POI-167,VAD10616,CiTR 101.9 FM,,,"AMS Nest, Level 2",,campus_services,,http://www.citr.ca/,Phone: (604) 822-8648,,N,AMS,Current,Services,,,,PLAN,20200708210732,{6A8CF0A9-1991-404C-B0E0-0F44441C1A4D},,,,Academic,-123.249524,49.266415
POI-261,VAD10479,The Media Group ,,,Woodward - IRC,,campus_services,,,,,N,UBC,Current,,,,,PLAN,20200708210733,{21E1D55A-DBF1-46B9-BFAD-3589DDB46A01},,,,Academic,-123.246666,49.26487
POI-299,VAD10439,St. John's College Front Desk,Front Desk,,St. John's College,,housing_student,,http://stjohns.ubc.ca/,Phone: (604) 822-8788; Email: sjc.reception@ubc.ca; Fax: (604) 822-8855,,N,SHHS,Current,Anchor,,,,PLAN,20200708210733,{92334AA9-4DF0-4A59-A6D1-7285D75499D8},,,,Academic,-123.256231,49.262753
POI-126,VAD11040,"Science, Faculty of",,,Earth Sciences Building,,faculty/school,,https://science.ubc.ca/,Phone: (604) 822-3820; Email: advising@science.ubc.ca; Fax: (604) 822-4282,M-F: 9:30am - 4pm,N,UBC,Current,Civic,,,,PLAN,20200708210733,{FAAF0F3D-CED3-47F7-9513-4E86521533D6},,,,Academic,-123.252022,49.263
POI-300,VAD10605,Marine Drive Residence Front Desk,Front Desk,,Marine Drive Residence,,housing_student,,http://vancouver.housing.ubc.ca/residences/marine-drive-residence/,Phone: (604) 827-3242; Email: information.housing@ubc.ca,,N,SHHS,Current,Anchor,,,,PLAN,20200708210733,{1572F017-1552-4A4B-854E-87CD9017579A},,,,Academic,-123.256759,49.261441
POI-127,VAD10106,"Pharmaceutical Sciences, Faculty of",,,Pharmaceutical Sciences Building,,faculty/school,,https://pharmsci.ubc.ca/,Phone: (604) 827-2673; Fax: (604) 822-3035,M-F: 8am - 6pm,N,UBC,Current,Services,,,,PLAN,20200708210733,{45FF362C-B3F7-43C7-8A6E-16B8AF51059D},,,,Academic,-123.242775,49.262584
POI-129,VAD10479,"Medicine, Faculty of",,,Woodward - IRC,,faculty/school,,http://www.med.ubc.ca/,Phone: (604) 822-2421; Email: http://www.med.ubc.ca/about/contact/; Fax: (604) 822-6061,M-F: 8:30am - 4:30pm; Sat/Sun: Closed,N,UBC,Current,Civic,,,,PLAN,20200708210733,{B9216E90-CABC-4B86-AD74-8F3DB7DB89A3},,,,Academic,-123.246793,49.264862
POI-19,VAD10021,Go Global International Learning Programs,,,International House,,campus_services,,https://students.ubc.ca/about-student-services/go-global,Phone: (604) 822-0942; Email: go.global@ubc.ca; Fax: (604) 822-9885,M-F: 9am - 4:15pm; Sat/Sun: Closed,N,UBC,Current,,,,,PLAN,20200708210733,{832D4D0D-026F-4716-9CA0-C9B7786BE113},,,,Academic,-123.258968,49.267803
POI-184,VAD10472,Totem Park,,,,garden-l,housing_student,,https://vancouver.housing.ubc.ca/residences/totem-park/,Phone: (604) 822-3304; Email: information@housing.ubc.ca,,N,UBC,Current,,,,,PLAN,20200708210733,{772CAD8C-C162-4886-B566-AD4C8CC97465},,,,Academic,-123.254059,49.259503
POI-35,VAD11131,Purdy Pavilion,,,Purdy Pavilion,,medical,,http://www.vch.ca/Locations-Services/result?res_id=29,Phone: (604) 822-7121; Fax: (604) 822-7653,,N,VCH,Current,Civic,,,,PLAN,20200708210733,{251F6E7F-C622-48DD-B662-04B571D05C69},SD1,Health,,Urban Facilities,-123.245942,49.263265
POI-32,VAD10226,University Neighbourhoods Association,,,Granite Terrace Office,,campus_services,http://www.infrastructuredevelopment.ubc.ca/rrs2/photos/686.jpg,http://www.myuna.ca/,reception@myuna.ca</br>General Inquiries: (604) 827-5158,M-F: 8.30 am to 4.30pm,N,UNA,Current,Civic,,,,PLAN,20200708210726,{F5FD1EEF-7400-49CD-81FA-B4CD5FE716AD},CU1,Cultural,,Urban Facilities,-123.236159,49.255027
POI-17,VAD10827,David Lam Management Research Library,,,David Lam,,libraries,http://www.infrastructuredevelopment.ubc.ca/rrs2/photos/490.jpg,http://lam.library.ubc.ca/,Information Desk: (604) 822-9400,M-F: 9am - 5pm; Sat/Sun: Closed,N,Library,Current,Civic,,,,PLAN,20200708210726,{68466833-EF22-45F5-9364-1B85BF614879},CU2,Cultural,,Urban Facilities,-123.254611,49.265778
POI-34,VAD11146,Walter C. Koerner Library,,,Walter C. Koerner Library,,libraries,http://www.infrastructuredevelopment.ubc.ca/rrs2/photos/515-1.jpg,http://www.library.ubc.ca/koerner,Information Desk: (604) 822-2725,M-Th: 8am - 8pm; Fri: 8am - 5pm; Sat:10am - 5pm; Sun: Closed,N,Library,Current,Civic,,,,PLAN,20200708210726,{4574B1C0-AF23-4DC8-B084-3376947C2808},CU5,Cultural,,Urban Facilities,-123.255131,49.266655
POI-362,VAD10023,"Music, Art & Architecture LIbrary",,,Irving K. Barber,,libraries,http://www.infrastructuredevelopment.ubc.ca/rrs2/photos/516.jpg,http://barber.library.ubc.ca/,Phone: (604) 822-3943; Email: maa.library@ubc.ca; Fax: (604) 822-3779,M-Thurs: 9am - 7pm; Fri: 9am - 5pm; Sat: 10am - 5pm; Sun: Closed ,N,Library,Current,Civic,,,,PLAN,20200708210726,{9F4C9446-C9E1-45BD-9FE2-56FC9E54AF5F},CU2,Cultural,,Urban Facilities,-123.252976,49.267876
POI-18,VAD10226,Village Gate Homes (Rental Housing) ,,,Granite Terrace Office,,campus_services,,https://www.villagegatehomes.com/,Phone: (778) 945-5100; Email: info@villagegatehomes.com,,N,UBCPT,Current,Services,,,,PLAN,20200708210726,{2BB9C532-7AEB-4508-98D0-BF994EACE365},,,,,-123.236051,49.255071
POI-111,VAD11124,University Hill Secondary School,,,University Hill Secondary School,,school,,http://go.vsb.bc.ca/schools/uhill/Pages/default.aspx,Phone: (604) 713-8258; Fax: (604) 713-8257,,N,VSB,Current,Civic,,,,PLAN,20200708210726,{86737F29-6353-40E3-ABC2-864653A71AE1},ED3,Education,,Urban Facilities,-123.239098,49.254123
POI-363,VAD10023,Rare Books and Special Collections,,,Irving K. Barber,,libraries,http://www.infrastructuredevelopment.ubc.ca/rrs2/photos/516.jpg,http://rbsc.library.ubc.ca/,Phone: (604) 822-2521,M-F: 10am - 4pm; Sat/Sun: Closed,N,Library,Current,Civic,,,,PLAN,20200708210726,{1A440388-BE5D-4BD6-8717-36A955D5E92B},ED4,Education,,Urban Facilities,-123.252976,49.267876
POI-364,VAD10023,University Archives,,,Irving K. Barber,,libraries,http://www.infrastructuredevelopment.ubc.ca/rrs2/photos/516.jpg,http://archives.library.ubc.ca/,Phone: (604) 822-5877; Email: http://archives.library.ubc.ca/contact-us/; Fax: (604) 822-9587,M-F: 10am - 4pm; Sat: 12pm - 5pm (Oct-Apr),N,Library,Current,Civic,,,,PLAN,20200708210726,{55A56026-523F-48F5-801D-E9104ECD9186},ED4,Education,,Urban Facilities,-123.252976,49.267876
POI-237,VAD10029,UBC Skate Park,,,,garden,park,,,,,N,UNA,Current,Civic,,,,PLAN,20200708210727,{FD2D86A3-885F-493E-9493-38EF39246E83},DE1,Sports,,Urban Facilities,-123.244471,49.260842
POI-134,VAD11141,Neptune Chinese Kitchen,,,Village Square,,restaurant,,https://www.neptunegroup.ca/ck-ubc,Phone: (604) 559-7098,M-S: 11am - 12am,Y,Non-UBC,UC,Services,,,,PLAN,20200708210727,{67C359FB-AFAC-49AB-8ECC-702F52617800},CO2,Commercial,15-20,Legal Entities,-123.235952,49.254185
POI-168,VAD10616,Gallery 2.0,,,"AMS Nest, Level 4",,restaurant,,http://www.ams.ubc.ca/foodanddrink/gallery/,Phone: (604) 827-5660,M-F: 11am - 10pm,N,AMS,Current,Services,,,,PLAN,20200708210727,{DAE45555-1FD3-4206-B5BD-9399CB7EE42F},CO2,Commercial,15-20,Legal Entities,-123.250066,49.266714
POI-63,VAD10845,PROTRANS BC Community Arena,,,Doug Mitchell Centre,,athletics,,,,,N,Athletics,Current,Services,,,,PLAN,20200708210727,{DD7ECD96-7E73-4243-95D5-3A020662862D},DE2,Sports,,Urban Facilities,-123.241947,49.260412
POI-210,VAD10891,Dollar "N" Plus ,,,University Village,,retail,,https://www.vancouverdollarstore.ca/,Phone: (604) 228-9818,Daily: 9am - 9pm,N,UEL,UEL,Retail,,,,PLAN,20200708210727,{0F3B00D4-6349-49D9-8914-43BDC29348FD},CO14,Commercial,5-10,Legal Entities,-123.242181,49.266045
POI-133,VAD11143,Shoppers Drug Mart,,,Village Square,,retail,,https://stores.shoppersdrugmart.ca/en/store/2247/?utm_source=G&utm_medium=lpm&utm_campaign=LPM%20_SDM,Phone: (604) 224-3086,M-S: 8am - 12am,Y,Non-UBC,UC,Services,,,,PLAN,20200708210727,{E4AE09ED-4C63-4150-B05D-C7AB72064370},CO7,Commercial,10-15,Legal Entities,-123.236495,49.254067
POI-287,VAD10224,Arthur Lord Field,Arthur Lord ,,,field,field,,https://sportfacilities.ubc.ca/thunderbird-park/thunderbird-park-contact/,"Department of Athletics & Rec, Phone: (604) 827-2764; Fax: (604) 822-6011",(Field Hours) M-F: 9am - 11pm; Sat: 8am - 8pm; Sun: 8am - 11pm,N,Athletics,Current,Services,,,,PLAN,20200708210727,{EB0EC6E2-FEA2-4D72-A5A3-95DCD1075E15},DE4,Sports,,Urban Facilities,-123.240254,49.259125
POI-157,VAD10022,Iona Green,,,,,park,,,,,N,UNA,Current,Civic,,,,PLAN,20200708210727,{88DCAE80-22F4-4F53-B1FA-0BB94C065235},DE5,Sports,,Urban Facilities,-123.250201,49.270668
POI-163,VAD10193,Nobel Park,,,,garden,park,,http://wesbrook.app2.thoughtshop.com/posts/nobel-park#.VYm4Wfm4S70,,,N,UNA,Current,Civic,,,,PLAN,20200708210727,{430AB3AD-B3F4-428E-A63C-014FCB47DD4C},DE5,Sports,,Urban Facilities,-123.2333,49.250134
POI-164,VAD10385,Mundell Park,,,,garden,park,,http://www.discoverwesbrook.com/posts/mundell-park#.WWPTuojyvcs,,,N,UNA,Current,Civic,,,,PLAN,20200708210727,{C18F1919-F66C-4A72-A7B0-CD75CF4E5F89},DE5,Sports,,Urban Facilities,-123.236175,49.252312
POI-192,VAD10781,Brockhouse Park,,,,garden,park,,,,,N,UNA,Current,Civic,,,,PLAN,20200708210728,{0A709BA6-8801-4ED6-B9E4-B7ADFEBC6573},DE5,Sports,,Urban Facilities,-123.237431,49.253715
POI-272,VAD10071,Norman MacKenzie Square,,,,,plaza,,,,,N,UNA,Current,,,,,PLAN,20200708210728,{8D968CD8-09BE-4B31-9544-775020AAB147},,,,,-123.235328,49.254185
POI-294,VAD10781,Community Field,Community,,,field,field,,,,,N,UNA,Current,,,,,PLAN,20200708210728,{E0CDABAC-844D-4FAB-8DEB-F3E438D15EC6},DE4,Sports,,Urban Facilities,-123.239032,49.253287
POI-283,VAD11102,Rasphal Dhillon Track & Field Oval,Rasphal Dhillon,,,field,field,,,,,N,Athletics,Current,Services,,,,PLAN,20200708210728,{1CF98690-52ED-4464-B91C-5DC646CA6E78},DE4,Sports,,Urban Facilities,-123.238461,49.256579
POI-194,VAD10149,Michael Smith Park,,,,garden,park,,,,,N,UNA,Current,Civic,,,,PLAN,20200708210728,{9C502DE4-AF35-4D4E-AAC9-F2E3E8BB6977},DE5,Sports,,Urban Facilities,-123.232653,49.253641
POI-297,VAD11102,Soccer Field,Soccer,,,field,field,,,,,N,Athletics,Current,Services,,,,PLAN,20200708210728,{F14A8CF4-B5C9-4126-87D8-FA3F123EC6C0},DE4,Sports,,Urban Facilities,-123.241074,49.256638
POI-295,VAD11102,Baseball Field,Baseball,,,field,field,,https://sportfacilities.ubc.ca/thunderbird-park/thunderbird-park-contact/,"Department of Athletics & Rec, Phone: (604) 827-2764; Fax: (604) 822-6011",(Field Hours) M-F: 9am - 11pm; Sat: 8am - 8pm; Sun: 8am - 11pm,N,Athletics,Current,Services,,,,PLAN,20200708210728,{A9B1FEF1-5E98-4355-BFA9-36326662851B},DE4,Sports,,Urban Facilities,-123.240605,49.255756
POI-279,VAD10224,Frank Buck Field,Frank Buck,,,field,field,,,,,N,Athletics,Current,Services,,,,PLAN,20200708210728,{DD3CC4A7-C039-4516-BCAE-39B78ACA854D},DE4,Sports,,Urban Facilities,-123.241188,49.2589
POI-25,VAD10438,St. John Hospice,,,St. John Hospice,,medical,,http://stjohnhospice.ca/,Phone: (604) 806-9686; Email: admin@sosjvancouver.org; Fax: (604) 806-9685,,N,UBC,Current,Civic,,,,PLAN,20200708210728,{E0D956C9-A16B-452C-912F-68AAB22B311A},SD1,Health,,Urban Facilities,-123.247462,49.255457
POI-298,VAD11102,Varsity Field,Varsity,,,field,field,,,,,N,Athletics,Current,Services,,,,PLAN,20200708210728,{A0AC36D8-C321-484E-A3A3-38F7F2516ED0},DE4,Sports,,Urban Facilities,-123.240435,49.257893
POI-291,VAD11102,Chris Spencer Field,Chris Spencer,,,field,field,,,,,N,Athletics,Current,Services,,,,PLAN,20200708210728,{9F30D8E7-1C70-4240-A20F-CC9F847456D3},DE4,Sports,,Urban Facilities,-123.239548,49.258146
POI-290,VAD10406,Ken Woods Field,Ken Woods ,,,field,field,,,,,N,Athletics,Current,Services,,,,PLAN,20200708210728,{CC8BFFF8-D344-4C13-BADC-3D69878FDE5C},DE4,Sports,,Urban Facilities,-123.243213,49.258198
POI-293,VAD10406,Wolfson Field,Wolfson,,,field,field,,,,,N,Athletics,Current,Services,,,,PLAN,20200708210728,{92361232-6B5B-4BFB-9F2D-F1EAD7844B0F},DE4,Sports,,Urban Facilities,-123.242335,49.25845
POI-281,VAD11102,Harry Warren Field,Harry Warren,,,field,field,,,,,N,Athletics,Current,Services,,,,PLAN,20200708210729,{D41CD5ED-0964-45A6-8217-1F5648DAF3E4},DE4,Sports,,Urban Facilities,-123.242521,49.257088
POI-292,VAD11102,Harold Wright Field,Harold Wright,,,field,field,,,,,N,Athletics,Current,Services,,,,PLAN,20200708210729,{8A1832B4-536D-4E4F-9FA7-3F878BB51041},DE4,Sports,,Urban Facilities,-123.241494,49.257476
POI-162,VAD10116,Hawthorn Park,,,,garden,park,,,,,N,UNA,Current,Civic,,,,PLAN,20200708210729,{390C740F-7D12-4B1A-95EA-6BFADE891AE8},DE5,Sports,,Urban Facilities,-123.248412,49.257875
POI-286,VAD11092,David Sidoo Field,David Sidoo,,,field,field,,,,,N,Athletics,Current,,,,,PLAN,20200708210729,{D7E3E574-037B-4358-B45F-450575DE7822},DE4,Sports,,Urban Facilities,-123.24545,49.254495
POI-161,VAD10208,Eagles Park,,,,garden,park,,,,,N,UNA,Current,Civic,,,,PLAN,20200708210729,{C3A71C9A-D51A-4D4F-94D6-4670D28FB5E1},DE5,Sports,,Urban Facilities,-123.246395,49.258629
POI-160,VAD10100,Jim Taylor Park,,,,garden,park,,,,,N,UNA,Current,Civic,,,,PLAN,20200708210729,{98B39304-865D-4B91-92DE-AA5BD2C1A28D},DE5,Sports,,Urban Facilities,-123.247873,49.25923
POI-21,VAD10815,Fairview Grove,,,,garden,wood,,,,,N,UBC,Current,,,,,PLAN,20200708210729,{9BFDEA9E-0773-43E9-AC93-1EBE72726FA4},DE5,Sports,,Urban Facilities,-123.250619,49.262903
POI-242,VAD10891,University Village various venues,,,University Village,,retail,,,,,N,UEL,UEL,,,,,PLAN,20200708210729,{A01DDBB6-E019-44DD-9E9F-659EED5E845A},,,,,-123.242792,49.266261
POI-39,VAD10184,Education Library,,,Scarfe,,libraries,http://www.infrastructuredevelopment.ubc.ca/rrs2/photos/234.jpg,http://education.library.ubc.ca/,Information Desk: (604) 822-3767,M-Th: 8am - 9pm; Fri: 8am - 5pm; Sat: 12pm - 5pm; Sun: Closed,N,Library,Current,Civic,,,,PLAN,20200708210729,{A12C179F-2503-46B8-A1C2-105B147995F8},CU2,Cultural,,Urban Facilities,-123.253356,49.263796
POI-316,VAD10023,The Chung Collection Exhibition,,,Irving K. Barber,,attractions,,http://chung.library.ubc.ca/,Phone: (604) 822-2521; Email: chung.collection@ubc.ca,M-F: 10am - 4pm; Sat: 12pm - 5pm (Sept - Apr),N,Library,Current,,,,,PLAN,20200708210729,{29CFE08B-954B-49AE-BB36-9213615AA945},CU3,Cultural,,Urban Facilities,-123.25278,49.267556
POI-69,VAD10840,Crane Library,,,"Brock Hall 
Brock Hall Annex",,campus_services,,http://services.library.ubc.ca/facilities/disability-access-by-building/access-guide-crane-library/,Phone: (604) 822-5584; Email: crane.library@ubc.ca,,N,UBC,Current,,,,,PLAN,20200708210729,{C376B245-7D97-4E2C-855C-1B30BCB39A02},CU2,Cultural,,Urban Facilities,-123.252559,49.269034
POI-191,VAD10082,Wesbrook Village Welcome Centre,,,Tapestry,,attractions,,http://www.discoverwesbrook.com/,Phone: (604) 228-2025; Email: info@discoverwesbrook.com,Daily: 10am - 6pm,N,UBCPT,Current,Civic,,,,PLAN,20200708210729,{337BADCF-2A27-4CF8-8BF7-35C8CB1A02DF},CU1,Cultural,,Urban Facilities,-123.234808,49.254162
POI-193,VAD10616,Hatch Art Gallery,,,AMS Nest,,attractions,,http://www.ams.ubc.ca/nest/art-gallery/,,,N,AMS,Current,Services,,,,PLAN,20200708210729,{E3F475BD-F6D3-4D9E-8192-5ECA9063DB72},CU3,Cultural,,Urban Facilities,-123.249756,49.266525
POI-354,VAD10180,Music Library,,,Music Building,,libraries,http://www.infrastructuredevelopment.ubc.ca/rrs2/photos/575.jpg,http://music.library.ubc.ca,Information Desk: (604) 822-3589,M-F: 9am - 5pm; Sat/Sun: Closed,N,Library,Current,Civic,,,,PLAN,20200708210730,{3EFE7CDA-940D-4BFE-B292-89F36DC21806},CU2,Cultural,,Urban Facilities,-123.256713,49.267347
POI-357,VAD10479,Woodward Library,,,Woodward Library,,libraries,http://www.infrastructuredevelopment.ubc.ca/rrs2/photos/536.jpg,http://www.library.ubc.ca/bmb/,Information Desk: (604) 822-2883,M-Th: 8am - 9pm; Fri: 8am - 5pm; Sat: 12pm - 5pm; Sun Closed,N,Library,Current,Civic,,,,PLAN,20200708210730,{EEC6A580-7E5A-4F79-9928-99D957DCE1B3},CU2,Cultural,,Urban Facilities,-123.247504,49.264598
POI-358,VAD10023,Irving K Barber Learning Centre,,,Irving K. Barber,,libraries,http://www.infrastructuredevelopment.ubc.ca/rrs2/photos/516.jpg,http://www.ikebarberlearningcentre.ubc.ca/,Information Desk: (604) 822-2725,Mon/Thurs/Fri: 9am - 5pm; Tues/Wed: 9am - 8pm; Sat: 12pm - 5pm; Sun: Closed,N,Library,Current,Civic,,,,PLAN,20200708210730,{2E674360-C124-4F3B-89B2-4F5C46D42714},CU5,Cultural,,Urban Facilities,-123.252705,49.267556
POI-28,VAD10415,UBC Welcome Centre,,,Alumni Centre,,campus_services,,http://welcomecentre.ubc.ca/,Phone: (604) 822-3313; Email: alumni.ubc@ubc.ca,M-F: 8am - 6pm; Sat: 10am - 4pm; Sun: Closed,N,UBC,Current,Civic,,,,PLAN,20200708210730,{DAA7EEA2-3453-4534-9E97-5A2449759D40},CU1,Cultural,,Urban Facilities,-123.249758,49.265968
POI-230,,Pizza Garden,,,University Village Pharmacy,,cafe,,http://www.pizzagarden.ca/,,,N,UEL,UEL,Services,,,,NIKT,20200716181320,{A280DB19-D7B2-41A8-8144-912C30EDDE08},CO3,Commercial,10-15,Legal Entities,-123.243497,49.266465
POI-170,VAD10616,Blue Chip Cafe,Blue Chip Cookies,,AMS Nest,,cafe,,https://www.ams.ubc.ca/the-nest/eat/,Phone: (604) 822-6999; Email: bluechipsup@ams.ubc.ca,M-F: 7am - 7pm; Sat/Sun: 9am - 5pm,N,AMS,Current,Services,,,,PLAN,20200708210730,{C8BCCFE9-454C-435E-8897-C316C97D47E2},CO4,Commercial,10-15,Legal Entities,-123.24981,49.266751
POI-135,VAD10078,Careville Pharmacy,,,The Mews,,pharmacy,,https://www.carevilleubc.ca/,Phone: (604) 800-0223; Email: info@careville.ca,M-F: 9am - 6pm; Sat: 9am - 5pm; Sun: Closed,Y,Non-UBC,Current,Retail,,,,PLAN,20200708210731,{1C1ECF52-CD3F-4F2A-BE0D-0BA3398773EC},CO7,Commercial,5-10,Legal Entities,-123.235675,49.254776
POI-140,VAD11098,AHVA Gallery,,,Ponderosa Commons East - Audain Art Centre,,attractions,,https://ahva.ubc.ca/ahva-gallery-home/,Phone: (604) 822-4563; Email: ahva.gallery@ubc.ca; Fax: (604) 822-9003,M-F (Sept-Apr): 12pm - 4pm,N,UBC,Current,,,,,PLAN,20200708210731,{E3AB0761-F5E2-48B4-B715-0C648609D512},CO12,Commercial,0-5,Legal Entities,-123.254563,49.263866
POI-231,,A&W,,,University Village Pharmacy,,cafe,,http://www.aw.ca/,Phone: (604) 428-0060,Daily: 24hrs,N,UEL,UEL,Services,,,,NIKT,20200716181320,{E7A3C60A-99E0-40B7-A05B-1CAD18EC3CF3},CO3,Commercial,10-15,Legal Entities,-123.243437,49.26647
POI-232,,Blenz,,,University Village Pharmacy,,cafe,,http://blenz.com/,Phone: (604) 559-2618,M-F: 7am - 10pm; Sat/Sun: 8am - 10pm,N,UEL,UEL,Services,,,,NIKT,20200716181320,{CBB16FBB-A738-4D37-9888-14FDA5A40644},CO4,Commercial,10-15,Legal Entities,-123.243576,49.266456
POI-229,,International Food Court,,,University Plaza,,cafe,,,,M-Sun: 10am-10pm,N,UEL,UEL,Services,,,,NIKT,20200716181320,{EE532DE8-A6D9-462E-A8D1-C1261E530E76},CO2,Commercial,10-15,Legal Entities,-123.242809,49.266633
POI-220,,Mini Super,,,University Plaza,,minimart,,http://www.facebook.com/pages/Mini-Super-at-UBC/249485448568472?sk=timeline&amp;ref=page_internal,,,N,UEL,UEL,Retail,,,,NIKT,20200716181320,{87F9A27E-83A9-4BBB-9D0A-A7D9BA6940B5},CO10,Commercial,0-5,Legal Entities,-123.242675,49.266645
POI-221,,Suga Sushi,,,University Plaza,,cafe,,,Phone: (604) 228-9912,"M-F: 11am - 3pm, 5pm - 9pm; Sat: 10am - 9pm",N,UEL,UEL,Services,,,,NIKT,20200716181320,{014F9423-88EC-449A-9168-5E6454E1E6A0},CO2,Commercial,10-15,Legal Entities,-123.242579,49.266697
POI-45,VAD11052,"Kinesiology, School of",,,War Memorial Gymnasium,,faculty/school,,http://kin.educ.ubc.ca/,Phone: (604) 822-9192; Email: ubc.kin@ubc.ca; Fax: (604) 822-6842,,N,UBC,Current,Civic,,,,PLAN,20200708210735,{26A582A1-AD64-4162-AF5E-237F70428690},,,,Academic,-123.247849,49.266702
POI-38,VAD11146,Government Publications and Maps,,,Walter C. Koerner Library,,libraries,,http://guides.library.ubc.ca/maps-atlases,Phone: (604) 822-0645; Email: General Inquiries-chelsea.shriver@ubc.ca,,N,Library,Current,Civic,,,,PLAN,20200708210735,{E475C129-3A9B-48B6-B30C-9BC77A9D29AD},,,,Academic,-123.255136,49.266665
POI-40,VAD11146,Data/GIS Lab,,,Walter C. Koerner Library,,libraries,,http://guides.library.ubc.ca/gis/home,Phone: (604) 822-5587; Email: paul.lesack@ubc.ca,,N,Library,Current,Civic,,,,PLAN,20200708210735,{3871CC03-B1AE-4D2D-B388-B9E8F848A382},,,,Academic,-123.255108,49.266625
POI-44,VAD10259,"Audiology & Speech Sciences, School of",,,Friedman Building,,faculty/school,,http://audiospeech.ubc.ca/,Phone: (604) 822-5591; Email: inquiry@audiospeech.ubc.ca; Fax: (604) 822-6569,,N,UBC,Current,Civic,,,,PLAN,20200708210735,{2E36930C-8F95-4C07-8313-3B89F11A61B8},,,,Academic,-123.246244,49.265385
POI-53,VAD10023,"Library, Archival & Information Studies, School of (iSchool@UBC)",,,Irving K. Barber,,faculty/school,,http://slais.ubc.ca/,Phone: (604) 822-2404; Email: ischool.info@ubc.ca,,N,UBC,Current,Civic,,,,PLAN,20200708210735,{C48C4266-9B95-4DB0-8194-899F2843717E},,,,Academic,-123.252686,49.267529
POI-56,VAD10412,Campus Mail,,,University Services Building,,campus_services,,https://campusmail.ubc.ca/,Phone: (604) 822-9495,M-F: 7am - 4pm,N,UBC,Current,Civic,,,,PLAN,20200708210735,{613C1DB6-FC27-4ADF-9BDE-D365DBC380C4},,,,Academic,-123.253361,49.260699
POI-85,VAD11064,A Perfect 10 Nail Spa,,,The Mews,,commercial_services,,https://www.facebook.com/A-Perfect-10-Nail-Spa-UBC-1694617264103471/ ; http://www.discoverwesbrook.com/posts/a-perfect-10-nail-spa#.XXF90yhKjct,Phone: (604) 738-2279,M-Sat: 10am - 6:30pm; Sun: Closed,Y,Non-UBC,Current,Services,,,,PLAN,20200708210735,{EFA67AA5-F705-4C9D-9268-9DBD00C3ACCA},CO15,Commercial,5-10,Legal Entities,-123.235475,49.254515
POI-91,VAD10078,Careville Health Clinic,,,The Mews,,medical,,https://www.carevilleubc.ca/,Phone: (604) 259-7744; Email: info@careville.ca,M-F: 9am - 5pm; Sat: 9am - 3pm; Sun: Closed,Y,Non-UBC,Current,Civic,,,,PLAN,20200708210735,{4A5C7763-B6DC-4A77-9BD3-F5D1BD75D6AD},SD1,Health,,Urban Facilities,-123.235675,49.254776
POI-100,VAD10071,BierCraft,,,The Mews,,restaurant,,http://biercraft.com/wesbrook-at-ubc/,Phone: (604) 559-2437,M-F: 11am - 12am,Y,Non-UBC,Current,Services,,,,PLAN,20200708210735,{A895F637-D865-4952-87C3-47AB57BB2283},CO2,Commercial,15-20,Legal Entities,-123.235488,49.25427
POI-113,VAD11030,Bento Sushi,,,David Lam Management Research Centre,,cafe,,http://www.food.ubc.ca/place/bento-sushi/,Phone: (604) 822-3256,M-F: 10am - 10pm; Sat & Sun: 10am - 5pm,N,SHHS,Current,Services,,,,PLAN,20200708210735,{1484FE75-8896-407E-93D8-91091644F682},CO2,Commercial,10-15,Legal Entities,-123.254283,49.26578
POI-118,VAD10014,"Business, Sauder School of",,,Henry Angus Building,,faculty/school,,http://www.sauder.ubc.ca/,Phone: (604) 822-8500; Fax: (604) 822-8468,M-F: 8:30am - 4:30pm,N,UBC,Current,Civic,,,,PLAN,20200708210735,{247F67DE-EC59-4A79-A662-78310CE1079D},,,,Academic,-123.253575,49.264917
POI-54,VAD11031,Continuing Studies,,,David Strangway,,faculty/school,,https://cstudies.ubc.ca/,Phone: (604) 822-1444; Email: https://cstudies.ubc.ca/contact-usFax: (604) 822-0388,M-F: 8:30am - 4:30pm,Y,Non-UBC,Current,Services,,,,PLAN,20200708210735,{9B911B6B-F484-4994-8C04-46313614279D},,,,Academic,-123.246246,49.265919
POI-60,VAD10479,College of Health Disciplines,,,Woodward - IRC,,department,,,,,N,UBC,Current,Civic,,,,PLAN,20200708210736,{B6F7F5DE-8300-4E7E-8C44-16699FEF93D3},,,,Academic,-123.246926,49.264769
POI-148,VAD10210,"Social Work, School of",,,Jack Bell Building,,faculty/school,,http://socialwork.ubc.ca/,Phone: (604) 822-2255; Fax: (604) 822-8656,,N,UBC,Current,Civic,,,,PLAN,20200708210740,{FFA20459-9444-4D57-8C27-32CD5F2C6E3D},,,,Academic,-123.255098,49.264479
POI-302,VAD10601,Thunderbird Residence Front Desk,Front Desk,,Thunderbird Residence,,housing_student,,http://vancouver.housing.ubc.ca/residences/thunderbird/,Phone: (604) 822-1233; Email: yearround@housing.ubc.ca,,N,SHHS,Current,Anchor,,,,PLAN,20200708210740,{F939A8C1-1478-47B0-B30F-234A66978EBE},,,,Academic,-123.249316,49.25944
POI-303,VAD10612,Fairiew Crescent Residence Front Desk,Front Desk,,Fairview Crescent Residence,,housing_student,,http://vancouver.housing.ubc.ca/residences/fairview-crescent/,Phone: (604) 822-3172; Email: information@housing.ubc.ca,,N,SHHS,Current,Anchor,,,,PLAN,20200708210740,{4A532C3E-30EB-48CE-84A0-7243202CE043},,,,Academic,-123.239711,49.263411
POI-144,VAD10230,"Land and Food Systems, Faculty of",,,MacMillan Building,,faculty/school,,http://www.landfood.ubc.ca/,Phone: (604) 822-1219; Email: lfs.dean@ubc.ca,,N,UBC,Current,Services,,,,PLAN,20200708210740,{66970B61-FBF2-4E68-8649-A78A70791729},,,,Academic,-123.251016,49.260978
POI-3,VAD11089,Bao Down ,,,Central,,cafe,,https://baodown.net/,Email: info@baodown.net,Needs Updating,UC,Non-UBC,UC,Services,,,,PLAN,20200708210740,{BCCCC3AA-4C9C-4E54-9669-74B9DD738210},CO2,Commercial,10-15,Legal Entities,-123.247301,49.266235
POI-66,VAD10840,"Awards, Fees and Financial Assistance ",,,Brock Hall,,campus_services,,https://students.ubc.ca/enrolment/finances,Phone: (604) 822-9836; Toll-free: 1-877-272-1422,"M, W-F: 9:30am - 4:00pm; Tue: 10:00am - 4:00pm",N,UBC,Current,,,,,PLAN,20200708210740,{2A34701C-9469-461B-A542-CBC07CE28C49},,,,Academic,-123.252197,49.268632
POI-98,VAD10774,BC Liqour Store,,,Wesbrook Professional Centre,,retail,,http://www.bcliquorstores.com/store/locator/192,Phone: (604) 225-5220,"M, T: 10am - 7pm; W-Sat: 10am - 9pm; Sun: 11am - 6pm",Y,Non-UBC,Current,Retail,,,,PLAN,20200708210740,{C021D04A-A078-4DE2-BC3D-78D7E8E535DB},CO14,Commercial,10-15,Legal Entities,-123.236228,49.254529
POI-196,VAD11023,Bank of Montreal,,,University Village,,bank,,https://branches.bmo.com/bc/vancouver/b0811/,Phone: (604) 665-7076; Fax: (604) 222-4500,M-F: 10am - 5pm,N,UEL,UEL,Services,,,,PLAN,20200708210740,{F52A5421-5A1A-4500-AF33-9A75F12B0E51},CO5,Commercial,10-15,Legal Entities,-123.243405,49.265965
POI-141,VAD11145,YMCA Child Care,YMCA,,Vista Point,,child_care,,https://gv.ymca.ca/Locations/Area-One/UBC/Vista-Point-YMCA-Child-Care,Phone: (604) 320-5818; Email: childcare@gv.ymca.ca; Email: vistapoint@gv.ymca.ca,,Y,Non-UBC,Current,Civic,<Null>,,,PLAN,20200708210741,{1B337C1E-FC47-4B19-BB72-23E63119EC13},BS6,Social welfare,,Urban Facilities,-123.24013,49.261643
POI-309,VAD11095,Totem Park Dining Room,,,Totem Park Residence,,restaurant,,http://www.food.ubc.ca/place/totem-park-dining-room/,Phone: (604) 822-6828,http://www.food.ubc.ca/place/totem-park-dining-room/,N,SHHS,Current,Services,,,,PLAN,20200708210741,{4FD92E04-74DF-426F-BFF9-BF46912ACEF3},CO2,Commercial,15-20,Legal Entities,-123.252812,49.25788
POI-307,VAD10032,Ideas Lunch & Wine Bar,,,"Peter Wall Institute for Advanced Studies, University Centre",,restaurant,,http://www.food.ubc.ca/place/ideas-lunch-wine-bar/,Phone: (604) 822-0968/(604) 822-0968; Email: sage.catering@ubc.ca,M-F: 11am - 2pm; Sat/Sun: Closed,N,SHHS,Current,Services,,,,PLAN,20200708210741,{A1CE2249-04F5-4EFC-A727-6EC36C629DAA},CO2,Commercial,10-15,Legal Entities,-123.256812,49.268851
POI-308,VAD10821,The Point Grill,,,Marine Drive Residence,,restaurant,,http://www.food.ubc.ca/place/pointgrill/,Phone: (604) 822-9503,M-F: 11am - 8pm; Sat/Sun: 11am - 2pm,N,SHHS,Current,Services,,,,PLAN,20200708210741,{0EBF457A-9705-47D1-976A-53C528BA0C34},CO2,Commercial,15-20,Legal Entities,-123.255379,49.26164
POI-314,VAD10889,The Loop Cafe,,,CIRS,,cafe,,http://www.food.ubc.ca/place/loop-cafe/,Phone: (604) 827-3758,M-F: 9am - 2:30pm,N,SHHS,Current,Services,,,,PLAN,20200708210741,{339D1A2F-2767-4F37-A1DE-CE1E6C416C7F},CO4,Commercial,5-10,Legal Entities,-123.253035,49.261883
POI-315,VAD10017,Pacific Poké,,,ICICS/CS,,restaurant,,http://www.food.ubc.ca/place/pacific-poke/,Phone: (604) 822-1992; Email: contact@thepacificpoke.com,M-F: 10:00am - 7pm ,N,SHHS,Current,Services,,,,PLAN,20200708210741,{AC0E71F6-077A-4438-AF78-89B87E33D0A7},CO2,Commercial,5-10,Legal Entities,-123.248605,49.260933
POI-318,VAD10614,RBC,,,Granite Terrace Office,,bank,http://www.infrastructuredevelopment.ubc.ca/rrs2/photos/686.jpg,http://www.rbcroyalbank.com/personal.html,Phone: (604) 221-5702,M-Thurs: 9:30am - 7pm; Fri: 9:30am - 6pm; Sat: 9am - 4pm: Sun: Closed,Y,Non-UBC,Current,Services,,,,PLAN,20200708210741,{2736DC8C-C867-46B8-88C8-32666D15AA48},CO5,Commercial,10-15,Legal Entities,-123.235985,49.255009
POI-319,VAD10561,Scotia Bank,,,David Strangway,,bank,,"http://www.scotiabank.com/ca/en/0,,2,00.html",Phone: (604) 225-2265,"Mon,Tues,Wed,Fri: 9:30am - 5pm; Thurs: 9:30am - 6pm; Sat: 9am - 4pm; Sun: Closed",Y,Non-UBC,Current,Services,,,,PLAN,20200708210741,{821C59C5-4E10-4AFD-8151-1320AF17896E},CO5,Commercial,15-20,Legal Entities,-123.246183,49.266044
POI-321,VAD10060,Freshii,,,Mews,,cafe,,https://www.freshii.com/ca/,Phone: (604) 343-4594; Email: 3351wesbrookmall@freshii.com,Tues-Fri: 9am - 8pm; Mon/Sat/Sun: Closed,Y,Non-UBC,Current,Services,,,,PLAN,20200708210741,{6A93F7A8-A89C-4E61-86D3-6D7DC3AA1296},CO4,Commercial,10-15,Legal Entities,-123.235364,49.254396
POI-322,VAD10077,Murchie's Tea and Coffee,,,Mews,,cafe,,http://www.murchies.com/store/,Phone: (604) 222-3355; Email: info@murchies.com,M-Sat: 10am - 6pm; Sun: 11am - 5pm,Y,Non-UBC,Current,Services,,,,PLAN,20200708210742,{685B1F91-AD2D-49F1-859C-BC1025364C82},CO4,Commercial,5-10,Legal Entities,-123.235727,49.254838
POI-323,VAD10415,Loafe Cafe,,,Alumni Centre,,cafe,,http://loafecafe.com/,Phone: N/A; Email: info@loafecafe.com,M-F: 8am - 6pm; Sat: 11am - 4pm; Sun: Closed,N,Non-UBC,Current,Services,,,,PLAN,20200708210742,{2A925A18-F368-44AC-8F58-36BC5C894991},CO4,Commercial,10-15,Legal Entities,-123.250173,49.265866
POI-71,VAD10840,Equity and Inclusion Office,,,Brock Hall,,campus_services,,http://equity.ubc.ca/,Phone: (604) 822-6353; Email: info@equity.ubc.ca; Fax: (604) 822-3260,,N,UBC,Current,,,,,PLAN,20200708210736,{0E241587-ABF9-414F-A03E-D161C3C16329},,,,Academic,-123.252197,49.268632
POI-61,VAD11023,Dentistry - Student Advising,,,J.B. Macdonald Building,,campus_services,,,,,N,UBC,Current,Civic,,,,PLAN,20200708210736,{7FAD56F0-E2BE-41E7-8A6C-46832B02EE8E},,,,Academic,-123.245451,49.265512
POI-62,VAD10824,UBC Energy and Water Services,,,Power House,,campus_services,,http://energy.ubc.ca/,Phone: (604) 822-9445,,N,UBC,Current,Civic,,,,PLAN,20200708210736,{9DCACC31-D564-4E05-9FB3-C226DB0FB931},,,,Academic,-123.245104,49.26165
POI-70,VAD10840,Enrolment Services,,,Brock Hall,,campus_services,,https://students.ubc.ca/about-student-services/enrolment-services-professionals-esp#contact-us,Phone: (604) 822-9836,"Mon, Wed, Thurs, Fri: 9:30am - 4pm; Tues: 10am - 4pm",N,UBC,Current,,,,,PLAN,20200708210736,{D3230AAB-A36C-42DF-A72C-73197600D35F},,,,Academic,-123.252197,49.268632
POI-72,VAD10840,Undergraduate Student Services,,,Brock Hall,,campus_services,,https://students.ubc.ca/,,,N,UBC,Current,,,,,PLAN,20200708210736,{50AF1AB6-676C-4EC9-A4A5-57D2D29FB5AA},,,,Academic,-123.252197,49.268632
POI-128,VAD10841,"Arts, Faculty of",,,Buchanan Building,,faculty/school,,https://www.arts.ubc.ca/,Phone: (604) 822-3828; Fax: (604) 822-6096; Email: arts.reception@ubc.ca,,N,UBC,Current,Civic,,,,PLAN,20200708210736,{FA93C9D1-B2DA-4AEC-ACE8-6BDB9635A866},,,,Academic,-123.254922,49.268351
POI-131,VAD11033,Allan McGavin Sports Medicine Centre,,,Djavad Mowafaghian Centre for Brain Health,,campus_services,,http://sportsmedicine.med.ubc.ca/,Phone: (604) 822-3614; Email: amsmcinfo@gmail.com; Fax: (604) 822-9058,,Y,Non-UBC,Current,Services,,,,PLAN,20200708210736,{FC0E38F8-65E6-4B3B-88BF-F8EC6F29DB11},SD2,Health,,Urban Facilities,-123.244421,49.264501
POI-304,VAD10617,Acadia Park Residence Front Desk,Front Desk,,Acadia Community Centre,,housing_student,,http://vancouver.housing.ubc.ca/residences/acadia-park/,Phone: (604) 822-3172; Email: family@housing.ubc.ca,,N,SHHS,Current,Anchor,,,,PLAN,20200708210736,{713EE463-FDA7-4B63-9B1F-EF5630BB93EF},,,,Academic,-123.237335,49.262587
POI-130,VAD10616,Sprouts,,,AMS Nest,,minimart,,http://www.ubcsprouts.ca/,,M-F: 9:30am - 4:30pm,N,Non-UBC,Current,Retail,,,,PLAN,20200708210736,{6748F4B0-0183-4AA5-800E-057C9DC121FC},CO4,Commercial,0-5,Legal Entities,-123.250105,49.266761
POI-136,VAD10073,Tapestry,,,Tapestry,,seniors,,http://www.discovertapestry.com/our-communities/tapestry-at-wesbrook-village/,Phone: (604) 225-5000,,Y,Non-UBC,Current,Civic,,,,PLAN,20200708210737,{84778721-5ECD-449E-A6C8-EADA9D90937C},BS3,Social welfare,,Urban Facilities,-123.235097,49.254766
POI-172,VAD10616,Safewalk,,,AMS Nest,,campus_services,,http://www.ams.ubc.ca/services/ams-safewalk,safewalk@ams.ubc.ca</br>(604) 822-5355,Regular: 8pm - 2am; Summer: 9pm - 2am,N,AMS,Current,Civic,,,,PLAN,20200708210737,{D2476BD4-E25A-441A-9D97-FA8E503372A0},BS4,Social welfare,,Urban Facilities,-123.249865,49.266446
POI-65,VAD10840,Admissions (Undergraduate) ,,,Brock Hall,,campus_services,,http://you.ubc.ca/applying-ubc/,Phone: (604) 822-8999; Fax: (604) 822-9888,M-F: 9:00am - 4pm; Sat: 9:30am - 2:30pm; Sun: Closed,N,UBC,Current,,,,,PLAN,20200708210737,{FFAF09AC-4820-46BC-9CE1-49ED035AB379},,,,Academic,-123.252197,49.268632
POI-262,VAD10023,Wellness Centre,,,Irving K. Barber,,campus_services,,https://students.ubc.ca/health-wellness/peer-support-wellness-centre,Phone: (604) 822-8450; Email: wellness.centre@ubc.ca,Tues-Thurs: 11am - 3pm,N,UBC,Current,,,,,PLAN,20200708210737,{4ADF73C9-642E-47D4-868D-068D273115C7},BS4,Social welfare,,Urban Facilities,-123.252687,49.267618
POI-169,VAD10616,AMS Confidential Support Services,,,AMS Nest,,campus_services,,https://www.ams.ubc.ca/student-services/speakeasy/,Phone: (604) 822-9246; Email: speak@ams.ubc.ca,M-F: 10am - 6pm,N,AMS,Current,Civic,,,,PLAN,20200708210737,{A322C03B-B9FF-433F-AA7C-AD5AA757F099},BS4,Social welfare,,Urban Facilities,-123.249865,49.266446
POI-222,,McDonald's,,,University Plaza,,cafe,,http://www.mcdonalds.ca/ca/en.html,Phone: (604) 221-2570,Daily: 24hrs,N,UEL,UEL,Services,,,,NIKT,20200716181320,{A6B4ED04-0D19-4506-9D91-9A183E92EC75},CO3,Commercial,10-15,Legal Entities,-123.242512,49.266705
POI-31,VAD10839,Brock Commons Residence Front Desk,Front Desk,,Brock Commons - Tallwood House,,housing_student,,http://vancouver.housing.ubc.ca/residences/brock-commons/,Phone: (604) 822-1020; Email: yearround@housing.ubc.ca,,N,SHHS,Future,Anchor,,,,PLAN,20200708210737,{60DE0EA6-8458-44E6-A215-BC8A7512DABF},,,,Academic,-123.251466,49.269541
POI-224,,H-Mart,,,University Plaza,,minimart,,http://www.hmart.ca/main/frame.php,,,N,UEL,UEL,Retail,,,,NIKT,20200716181320,{FA61C464-2C9E-47F3-BACA-1EA54D64A2C8},CO10,Commercial,5-10,Legal Entities,-123.243084,49.266614
POI-213,,Bubble Waffle Cafe,,,University Plaza,,cafe,,http://www.bubblewafflecafe.ca/,Phone: (604) 563-5444,M-F: 11am - 9pm; Sat/Sun: 12pm - 9pm,N,UEL,UEL,Services,,,,NIKT,20200716181320,{71DB72B2-F92B-4DFA-AB39-8A7781543F85},CO4,Commercial,5-10,Legal Entities,-123.242693,49.266681
POI-64,VAD10840,Centre for Accessibility,,,Brock Hall,,campus_services,,https://students.ubc.ca/about-student-services/centre-for-accessibility,Phone: (604) 822-5844; Email: info.accessibility@ubc.ca; Fax: (604) 822-6655,"Mon, Wed, Fri: 8:30am - 4:30pm; Tues: 8:30am - 5pm; Thurs: 8:30am - 4pm",N,UBC,Current,,,,,PLAN,20200708210737,{41962AED-9967-4D56-983F-6C6226B38BD6},,,,Academic,-123.252197,49.268632
POI-368,VAD10412,Caribou Child Care,Caribou,,University Services Building,,child_care,,http://www.childcare.ubc.ca/,Phone: (604) 822-5343; Email: childcare@housing.ubc.ca; Fax: (604) 822-9195,"Office Hours, M-F: 8:30am - 4:30pm",N,SHHS,Current,Civic,<p>Caribou Child Care Services Centre</p>,,,PLAN,20200708210738,{764326D4-29D0-4215-8C1B-146DED736740},BS6,Social welfare,,Urban Facilities,-123.253088,49.260778
POI-149,VAD10103,Hummingbird Child Care,Hummingbird ,,Orchard Commons,,child_care,,https://childcare.ubc.ca/,Phone: (604) 822-5343; Email: childcare@housing.ubc.ca; Fax: (604) 822-9195,,N,SHHS,Current,Civic,,,,PLAN,20200708210738,{8518C0BD-93B5-4795-A2A8-19B3163A5FDF},BS6,Social welfare,,Urban Facilities,-123.250562,49.260204
POI-77,VAD10377,UBC Press,University of British Columbia Press,,Ponderosa Annex B,,campus_services,,http://www.ubcpress.ca/index.html,Phone: (604) 822-5959; Email: frontdesk@ubcpress.ca; Fax: (604) 822-6083,,N,UBC,Current,,,,,PLAN,20200708210738,{F5C84360-F903-4C8F-AE21-B31DED2C1AA0},,,,Academic,-123.255966,49.264838
POI-10,VAD10281,Engineering,,,Fred Kaiser,,department,,https://engineering.ubc.ca/,,,N,UBC,Current,Services,,,,PLAN,20200708210739,{9BF73A4C-37EE-4808-B8F4-9E37B83F93A7},,,,Academic,-123.250147,49.262465
POI-13,VAD11030,Robert H. Lee Graduate School ,,,Henry Angus,,department,,http://www.sauder.ubc.ca/About/Place/Robert_H_Lee_Graduate_School,Phone: (604) 822-8500; Fax: (604) 822-8468,,N,UBC,Current,Civic,,,,PLAN,20200708210739,{5E32DEDB-E9FA-46F9-A358-8968F25EE9D6},,,,Academic,-123.254147,49.265619
POI-15,VAD10831,UBC Parking Services,,,Bookstore,,campus_services,,https://parking.ubc.ca/,Phone: (604) 822-6786; Email: parking.support@ubc.ca; Fax: (604) 827-2509,M-F: 9:30am - 5:30pm,N,Parking,Current,Services,,,,PLAN,20200708210739,{5B01C090-F5F0-4199-9FB1-6C81077A13EB},,,,Academic,-123.250699,49.264878
POI-16,VAD10831,UBC Carding Office,,,UBC Bookstore,,campus_services,,http://ubccard.ubc.ca/,Phone: (604) 827-5900; Email: ubc.card@ubc.ca,"Mon,Tues,Thurs,Fri: 9:30am - 5:30pm; Wed: 9:30am - 7pm; Sat: 11am - 5pm",N,UBC,Current,Services,,,,PLAN,20200708210739,{63DB81B7-07BB-4013-A878-DC1B58BF0A43},,,,Academic,-123.250497,49.265269
POI-74,VAD10605,UBC Food Services Administration,,,Marine Drive Residence,,campus_services,,www.food.ubc.ca,Phone: (604) 822-3663; Email: food.services@ubc.ca; Fax: (604) 822-4152,M-F: 8:15am - 5pm,N,SHHS,Current,,,,,PLAN,20200708210739,{BE17ECBD-C8DE-49EE-ADB0-68F642F3FDF6},,,,Academic,-123.255544,49.261147
POI-47,VAD10398,"Journalism, School of",,,Sing Tao Building,,faculty/school,,https://journalism.ubc.ca/,Phone: (604) 822-6688,M-F: 8am - 4pm,N,UBC,Current,Civic,,,,PLAN,20200708210739,{7979FAC0-8C03-4A3F-ADED-94340096B172},,,,Academic,-123.257773,49.267812
POI-43,VAD10282,"Community and Regional Planning, School of (SCARP)",,,Fredric Lasserre Building,,faculty/school,,https://scarp.ubc.ca/,Phone: (604) 822-3276,M-F: 8:30am - 4:30pm,N,UBC,Current,Civic,,,,PLAN,20200708210739,{49CA1B0C-C583-4F1C-B492-DACD1B222F4F},,,,Academic,-123.256062,49.267561
POI-123,VAD10184,"Education, Faculty of",,,Scarfe,,faculty/school,,https://educ.ubc.ca/,Phone: (604) 822-5242; Email: info.educ@ubc.ca,,N,UBC,Current,Civic,,,,PLAN,20200708210739,{6732E241-4A57-49F8-8EE1-DA9C227C1521},,,,Academic,-123.252554,49.26392
POI-121,VAD10180,"Music, School of",,,Music Building,,faculty/school,,https://music.ubc.ca/,Phone: (604) 822-3113; Fax: (604) 822-4884,,N,UBC,Current,Civic,,,,PLAN,20200708210739,{8AF4037E-AD63-4B7D-9125-DE465B908CA7},,,,Academic,-123.256712,49.267447
POI-112,VAD10022,Vancouver School of Economics,,,Iona Building,,faculty/school,,http://economics.ubc.ca/,Phone:(604) 822-2876; Fax:(604) 822-5915,M-F: 7:30am - 9pm; Sat/Sun: Closed,N,UBC,Current,Civic,,,,PLAN,20200708210739,{2F18B92B-C696-4CCD-94D7-6933D311C77A},,,,Academic,-123.250374,49.270995
POI-122,VAD10276,"Forestry, Faculty of",,,Forestry,,faculty/school,,http://www.forestry.ubc.ca/,Phone: (604) 822-2727; Email: for.recep@ubc.ca; Fax: (604) 822-8645,,N,UBC,Current,Services,,,,PLAN,20200708210739,{7B827E0B-22C8-4706-A85A-E5D74BFBA108},,,,Academic,-123.248814,49.260474
POI-124,VAD10479,"Dentistry, Faculty of",,,Woodward - IRC,,faculty/school,,http://www.dentistry.ubc.ca/,Phone: (604) 822-7566; Email: http://www.dentistry.ubc.ca/contact-form/?dept=DMD,,N,UBC,Current,Civic,,,,PLAN,20200708210740,{49C2917F-3BE5-468A-84F8-C4B38A1E02F0},,,,Academic,-123.246729,49.264799
POI-125,VAD10490,"Law, Peter A. Allard School of",,,Allard Hall,,faculty/school,,http://www.allard.ubc.ca,Phone: (604) 822-3151; Fax: (604) 822-8108,M-F: 8:30am - 4:30pm,N,UBC,Current,Civic,,,,PLAN,20200708210740,{2562E568-1FBA-4208-96F7-3508709D2C5D},,,,Academic,-123.253515,49.269948
POI-301,VAD11095,Totem Park Residence Front Desk,Front Desk,,Totem Park Residence,,housing_student,,http://vancouver.housing.ubc.ca/residences/totem-park/,Phone: (604) 822-3304; Email: information@housing.ubc.ca,,N,SHHS,Current,Anchor,,,,PLAN,20200708210740,{1D24987D-9B27-4382-AB14-A84C6705F909},,,,Academic,-123.253011,49.25803
POI-41,VAD10282,"Architecture & Landscape Architecture, School of (SALA)",,,Fredric Lasserre Building,,faculty/school,,https://sala.ubc.ca/,Phone: (604) 827-7252,,N,UBC,Current,Civic,,,,PLAN,20200708210734,{8D4F6672-E7DE-4F5E-A9DF-187BCA220A21},,,,Academic,-123.255948,49.267604
POI-353,VAD10810,Asian Library,,,Asian Centre,,libraries,http://www.infrastructuredevelopment.ubc.ca/rrs2/photos/046.jpg,http://asian.library.ubc.ca,Circulation Desk: (604) 822-2427; Email: asian.library@ubc.ca; Fax: (604) 822-0650,M-F: 9am - 5pm; Sat: 12pm - 5pm; Sun: Closed,N,Library,Current,Civic,,,,PLAN,20200708210734,{C9E93CEB-0115-4626-BF77-0356E041AA54},CU2,Cultural,,Urban Facilities,-123.258544,49.266727
POI-207,VAD10891,University VIllage Medical Clinic,,,University Village,,medical,,http://www.universityvillageclinic.com/,Phone: (604) 222-2273,,N,UEL,UEL,Civic,,,,PLAN,20200708210734,{B258A2B3-E108-4171-9ECC-5E1C67BE0863},SD1,Health,,Urban Facilities,-123.242255,49.266342
POI-20,VAD10021,International Student Development,,,International House,,campus_services,,https://students.ubc.ca/about-student-services/international-student-development,Phone: (604) 822-5021; Email: isa@students.ubc.ca/international.house@ubc.ca; Fax: (604) 822-5099,M-F: 1pm - 4pm; Sat/Sun: Closed,N,UBC,Current,,,,,PLAN,20200708210734,{53889883-7C1E-4E56-A414-631ECF5EC12F},,,,Academic,-123.258968,49.267803
POI-22,VAD10080,Finance,,,TEF3,,campus_services,,https://finance.ubc.ca/,Phone: (604) 822-2187; Email: info.pps@ubc.ca,,N,UBC,Current,Services,,,,PLAN,20200708210734,{F61EB24E-AAEC-48F5-8779-BC0885CBE379},,,,Academic,-123.246262,49.261065
POI-23,VAD10080,Human Resources,,,TEF3,,campus_services,,http://www.hr.ubc.ca/,Phone: (604) 822-8111; Email: hr.info@ubc.ca; Fax: (604) 822-8134,M-F: 8:30am - 4:30pm,N,UBC,Current,Services,,,,PLAN,20200708210735,{9B262A8A-7455-447D-91BB-4A43D1A3011C},,,,Academic,-123.246379,49.261185
POI-199,,University Pharmacy,,,University Village Pharmacy,,pharmacy,,https://www.universitypharmacy.net/?utm_source=Google&utm_medium=maps&utm_campaign=Local_Presence,Phone: (604) 224-3202,M-F: 9am - 8pm; Sat/Sun: 10am - 6pm,N,UEL,UEL,Retail,,,,NIKT,20200716181319,{B2342FB8-672A-4CB7-8286-C61C42710B87},CO7,Commercial,5-10,Legal Entities,-123.243272,49.266495
POI-198,,CIBC,,,University Village Pharmacy,,bank,,https://locations.cibc.com/bc/vancouver/05800?utm_source=google&utm_medium=distrib&utm_campaign=google-distrib,Phone: (604) 221-3550; Fax: (604) 224-5781; Toll-free: 1-800-465-2422,"Mon, Tues: 9am - 5pm; Wed-Fri: 9am - 7pm; Sat: 9am - 4pm; Sun: Closed",N,UEL,UEL,Services,,,,NIKT,20200716181320,{40AA7547-784E-4092-97DE-8C4A189D08C9},CO5,Commercial,10-15,Legal Entities,-123.243781,49.26641
POI-158,,St. Andrew's Quad,,,,,park,,,,,N,UNA,Current,Civic,,,,NIKT,20200716181320,{5BDBC9BF-E6B5-4BB5-BF31-BC1C87CC840E},DE5,Sports,,Urban Facilities,-123.251746,49.269956
POI-195,,Khorana Park,,,,garden,park,,http://wesbrook.app2.thoughtshop.com/posts/khorana-park#.VYm4W_m4S70,,,N,UNA,Current,Civic,,,,NIKT,20200716181320,{EDA25446-318E-4BDB-AFEB-5E123072CF70},DE5,Sports,,Urban Facilities,-123.232273,49.255353
POI-502,,Canada Post,,,University Village Pharmacy,,campus_services,,https://www.canadapost.ca/cpotools/apps/fpo/personal/findPostOfficeDetail?outletId=%20g96d22b232dff9697_0000104776,Phone: 1 (800) 267-1177,M-F: 9am - 8pm; Sat: 10am - 6pm; Sun: 12pm - 4pm,,,UEL,,,GISSTUD1,20180117190927,NIKT,20200716181319,{11425FA7-EA43-48FC-9A2A-B10A0EEBECC3},CO8,Commercial,0-5,Legal Entities,-123.243196,49.266509
POI-200,,Copiesmart,,,University Plaza,,commercial_services,,http://www.copiesmart.com/,Phone: (604) 222-3189; Email: info@copiesmart.com; Fax: (604),M-F: 8:30am - 5pm; Sat: 10am - 5pm; Sun: Closed,N,UEL,UEL,Services,,,,NIKT,20200716181320,{47D5AF31-F760-4417-BC4A-CB0AC6333FB5},CO15,Commercial,5-10,Legal Entities,-123.242862,49.266658
POI-201,,University Drycleaners,,,University Plaza,,commercial_services,,http://www.universitydrycleaners.org/,Phone: (604) 228-9414; Email: universityubcdc1@yahoo.com,"Mon, Tues, Thurs: 9am - 5pm; Wed, Fri: 9am - 3pm; Sat: 10am - 1pm; Sun: Closed",N,UEL,UEL,Services,,,,NIKT,20200716181320,{8C9AE050-27A3-4E1D-A6D1-78D2CD1F4613},CO15,Commercial,0-5,Legal Entities,-123.242984,49.266635
POI-276,,Yosef Wosk Reflecting Pool,,,,garden,garden,,,,,N,UBC,Current,,,,,NIKT,20200716181319,{15860B58-C4AF-4C81-89A7-264AB0244EBF},DE5,Sports,,Urban Facilities,-123.260293,49.269865
POI-51,VAD11083,Graduate Student Society,,,Thea Koerner House,,campus_services,,https://gss.ubc.ca/,Phone: (604) 822-3203; Email: info@gss.ubc.ca,M-F: 9am - 5pm,N,UBC,Current,Civic,,,,PLAN,20200708210714,{5FCB3108-ED75-4F8B-BA78-521447673A71},,,,Academic,-123.257836,49.26837
POI-132,VAD11031,Family Practice Teaching Unit/Clinic,,,David Strangway,,campus_services,,http://clinic.familymed.ubc.ca/,Phone: (604) 822-5431; Email: family.clinic@familymed.ubc.ca; Fax: (604) 822-4089,M-F: 9am - 5pm,Y,Non-UBC,Current,Services,,,,PLAN,20200708210713,{A122A0A9-0F78-48D6-ADDF-CE2B4138962A},SD2,Health,,Urban Facilities,-123.246341,49.265908
POI-205,VAD11023,Pacific Spirit Dental,,,University Village,,medical,,http://www.pacificspiritdental.ca/,Phone: (604) 224-2411,M-F: 8am - 5pm,N,UEL,UEL,Civic,,,,PLAN,20200708210714,{CDB9BF92-DF4A-445E-BB76-D877C99F7185},SD2,Health,,Urban Facilities,-123.242825,49.265955
POI-305,VAD10210,Ponderosa Commons Residence Front Desk,Front Desk,,Ponderosa Commons,,housing_student,,http://vancouver.housing.ubc.ca/residences/ponderosa-commons/,Phone: (604) 822-2708; Email: yearround@housing.ubc.ca,,N,SHHS,Current,Anchor,,,,PLAN,20200708210714,{DA2E8B87-E876-4A3B-AB9E-18C8967F8B90},,,,Academic,-123.255454,49.26423
POI-381,VAD10138,Kids Club Child Care,Kids Club,,Kids Club,,child_care,,https://childcare.ubc.ca/,Phone: (604) 822-5343; Email: childcare@housing.ubc.ca; Fax: (604) 822-9195,,N,SHHS,Current,Civic,<p>Kids Club Child Care Services Centre</p>,,,PLAN,20200708210714,{DA9C668E-C6DB-410E-BD7A-1381D75CC9CC},BS6,Social welfare,,Urban Facilities,-123.234812,49.26173
POI-360,VAD11146,Humanities & Social Sciences,,,Walter C. Koerner Library,,libraries,http://www.infrastructuredevelopment.ubc.ca/rrs2/photos/515-1.jpg,http://www.library.ubc.ca/koerner,Information Desk: (604) 822-2725; Email: hssd.library@ubc.ca,M-Th: 8am - 8pm; Fri: 8am - 5pm; Sat:10am - 5pm; Sun: Closed,N,Library,Current,Civic,,,,PLAN,20200708210714,{AD7BB9F3-24EC-48EF-9C42-BC0DBAA624AD},,,,Academic,-123.255131,49.266655
POI-361,VAD11146,Microforms & Journals ,,,Walter C. Koerner Library,,libraries,http://www.infrastructuredevelopment.ubc.ca/rrs2/photos/515-1.jpg,http://www.library.ubc.ca/koerner,Information Desk: (604) 822-2725; Email: hssd.library@ubc.ca,M-Th: 8am - 8pm; Fri: 8am - 5pm; Sat:10am - 5pm; Sun: Closed,N,Library,Current,Civic,,,,PLAN,20200708210714,{BA568A75-8108-45E7-AF33-981297BD70D0},,,,Academic,-123.255131,49.266655
POI-289,VAD10063,Owl Child Care,Owl,,The Barn,,child_care,,https://childcare.ubc.ca/,Phone: (604) 822-5343; Email: childcare@housing.ubc.ca; Fax: (604) 822-9195,,N,SHHS,Current,Civic,<p>Owl at the Barn Child Care Services Centre</p>,,,PLAN,20200708210714,{A3B3F504-0D0C-4136-AA99-72F3DAB5A3B9},BS6,Social welfare,,Urban Facilities,-123.251184,49.262006
POI-88,VAD10226,Xerox Canada,,,Granite Terrace Office,,commercial_services,,http://www.xeroxprintservicesubc.ca/,Phone: (604) 221-4244; Email: dms@xerox.com,M-F: 7:30am - 5pm,Y,Non-UBC,Current,Services,,,,PLAN,20200708210714,{B9314A24-A157-4C3A-A81E-C57F1BCEFF80},,,,,-123.236151,49.255106
POI-78,VAD10127,Green College Front Desk,Front Desk,,Green College,,housing_student,,http://www.greencollege.ubc.ca/,Phone: (604) 822-8660; Email: gc.reception@ubc.ca; Fax: (604) 822-8742,M-F: 9am - 12pm & 1pm - 4pm,N,SHHS,Current,Anchor,,,,PLAN,20200708210714,{8059EC2C-EE73-4478-8CF1-02458425F86E},,,,Academic,-123.256407,49.270922
POI-79,VAD10103,Orchard Commons Residence Front Desk,Front Desk,,Orchard Commons,,housing_student,,http://vancouver.housing.ubc.ca/residences/orchard-commons/,Email: information@housing.ubc.ca,,N,SHHS,Current,,,,,PLAN,20200708210714,{DEEA5DB0-266B-40C2-BDCA-AFBCB2484959},,,,Academic,-123.250932,49.260072
POI-282,VAD11093,Totem Field,Totem,,,garden-l,field,,,,,N,UBC,Current,,,,,PLAN,20200708210715,{8E001D8B-646E-4C2B-BBD4-128D952626A4},DE4,Sports,,Urban Facilities,-123.250139,49.256538
POI-159,VAD10040,East Campus Park,,,,garden,park,,,,,N,UNA,Current,Civic,,,,PLAN,20200708210715,{727712D5-E121-41E1-8DEE-C5E59E93DDDC},DE5,Sports,,Urban Facilities,-123.239873,49.262355
POI-285,VAD11092,Whit Matthews Field,Whit Matthews,,,field,field,,,,,N,Athletics,Current,Services,,,,PLAN,20200708210715,{25D0C742-DC51-4DCE-8D13-5A0C9E4C5AE8},DE4,Sports,,Urban Facilities,-123.243072,49.255214
POI-267,VAD10116,Rhododendron Wood,,,,garden-l,wood,,,,,N,UBC,Current,,,,,PLAN,20200708210715,{D4180CE1-50C8-4626-B8FE-34B754855D53},DE5,Sports,,Urban Facilities,-123.246862,49.256678
POI-243,VAD10409,Flag Pole Plaza,,,,garden,plaza,,,,,N,UBC,Current,Civic,,,,PLAN,20200708210715,{B9A69572-38BE-44F9-857A-061B3CC52380},,,,,-123.256166,49.268884
POI-155,VAD10562,Lutheran Campus Centre,,,Lutheran Campus Centre,,worship,,,Phone: (604) 224-1614,,N,UEL,UEL,Civic,,,,PLAN,20200708210715,{E517453C-07E6-4B2B-AF6E-277F23594CC7},CI1,Civic,0-5,Legal Entities,-123.245249,49.266712
POI-186,VAD11122,Greenheart TreeWalk,TreeWalk,,Botanical Garden,garden,garden,http://www.infrastructuredevelopment.ubc.ca/rrs2/photos/099.jpg,http://www.botanicalgarden.ubc.ca/canopy-walkway,Phone: (604) 822-4208; Email: info@greenheart.ca,Daily: 10am - 4pm,N,UBC,Current,Civic,,,,PLAN,20200708210715,{669772DF-F9D4-4DFC-9FBF-F03369F2201B},,,,,-123.244418,49.249611
POI-165,VAD10706,Epiphany Chapel,,,Epiphany Chapel,,worship,,,Phone: (604) 822-9815,,N,Non-UBC,Current,Civic,,,,PLAN,20200708210715,{8F3B4519-0EEE-4881-AB79-41034A2AA5F6},CI1,Civic,0-5,Legal Entities,-123.252257,49.271581
POI-225,VAD11023,Red Burrito,,,University Village,,cafe,,http://www.redburrito.ca/,Phone: (604) 569-1313,M-F: 11am - 9:30pm; Sat/Sun: 11am - 9pm,N,UEL,UEL,Services,,,,PLAN,20200708210715,{289824F6-BEEC-4E88-997E-FC23B51ED4F8},CO2,Commercial,10-15,Legal Entities,-123.243211,49.265713
POI-226,VAD11023,Pearl Fever Tea House ,,,University Village,,cafe,,http://www.pearlfever.ca/,Phone: (604) 221-9882,Daily: 11am - 11pm,N,UEL,UEL,Services,,,,PLAN,20200708210716,{82405A7A-0F07-4F8C-B8A6-CCAA0F9C2796},CO4,Commercial,5-10,Legal Entities,-123.243176,49.26587
POI-244,VAD10064,Running Room,,,Tapestry,,retail,,http://www.runningroom.com/hm/inside.php?id=4442,Phone (604) 221-1685,M-F: 9.30am - 9pm; Sat: 9.30am - 6pm; Sun: 8.30am - 5pm,Y,Non-UBC,Current,Retail,,,,PLAN,20200708210717,{5F62866A-5FD3-4BC1-8547-F939AA19862D},CO14,Commercial,5-10,Legal Entities,-123.235411,49.254953
POI-245,VAD10562,Shoppers Drug Mart,,,Strangway,,pharmacy,http://farm2.staticflickr.com/1393/801765508_a8ee553937.jpg,www.shoppersdrugmart.ca/,(604) 228-1533,Daily: 8am - 10pm,Y,Non-UBC,Current,Retail,,,,PLAN,20200708210717,{5F3342A8-09C0-4B0C-82EC-2E19CA9D141F},CO7,Commercial,15-20,Legal Entities,-123.245811,49.266108
POI-246,VAD10724,Royal Canadian Mounted Police,RCMP,,Public Safety,,campus_services,http://ubyssey.ca/wp-content/uploads/2011/06/wpid-RCMP-office_20101003_Colin-Chia.jpg,http://university.bc.rcmp-grc.gc.ca/,Non Emergency Phone: (604) 224-1322; Fax: (604) 224-4759,M-F: 8am - 4pm,N,Non-UBC,Current,Civic,,,,PLAN,20200708210717,{3E6E652D-DAD3-4320-AC47-FE146500134C},CI3,Civic,10-15,Legal Entities,-123.238541,49.25902
POI-247,VAD10725,University Fire Hall #10,Fire,,Public Safety,,campus_services,,http://www.vanffcpr.org/location/location.php?id=10,Non Emergency Line (604) 665-6000,,N,Non-UBC,Current,Civic,,,,PLAN,20200708210717,{C0D3FF44-5B5C-4A8D-8EB0-20B0DE650259},CI2,Civic,5-10,Legal Entities,-123.238242,49.2587
POI-248,VAD10221,Togo Sushi,,,MBA House,,cafe,,http://www.togosushi.ca/ubc.html,Phone: (604) 222-9288,M-W: 10:30am - 8pm; Thurs-Fri: 10:30am - 9pm; Sat: 10:30am - 8pm; Sun: 11:30am -,Y,Non-UBC,Current,Services,,,,PLAN,20200708210717,{F7D6F84D-E989-4212-B878-5824F7B4681B},CO2,Commercial,10-15,Legal Entities,-123.235374,49.253988
POI-254,VAD10616,Merit Travel,,,AMS Nest,,commercial_services,,http://merittravel.ca,,,N,Non-UBC,Current,Services,,,,PLAN,20200708210717,{F5B6D34A-79F3-4792-AFD5-7E8FE3CC0FBD},CO13,Commercial,0-5,Legal Entities,-123.249685,49.266609
POI-255,VAD10616,i Campus Vision,,,AMS Nest,,retail,,https://www.campusvision.com/,,,N,Non-UBC,Current,Retail,,,,PLAN,20200708210717,{B7B657D5-272C-47E1-B563-99B2F39BFE44},CO14,Commercial,0-5,Legal Entities,-123.249824,49.266611
POI-256,VAD10616,On the Fringe,,,AMS Nest,,commercial_services,,http://www.onthefringehairdesign.com/,Phone: (604) 221-0320; Email: otfubc@onthefringehairdesign.com,"M,T,F: 10am -6pm; Wed/Thurs: 10am - 8pm; Sat: 10am - 5pm; Sun: Closed",N,Non-UBC,Current,Services,,,,PLAN,20200708210717,{2FB8BB6E-9925-4DF4-B2CF-8EC230723B66},CO15,Commercial,0-5,Legal Entities,-123.249651,49.266568
POI-257,VAD10616,Blooming Gift Shop,,,AMS Nest,,retail,,,Phone: (778) 883-2464,M-Thurs: 10:30am - 6:30pm; Fri: 10:30am - 6:00pm: Sat/Sun: Closed,N,Non-UBC,Current,Retail,,,,PLAN,20200708210717,{0738AF40-80B0-4F6B-955B-8C45ECF955D9},CO14,Commercial,0-5,Legal Entities,-123.250031,49.266664
POI-258,VAD10616,Wireless Wave,,,AMS Nest,,retail,,http://www.wirelesswave.ca,,,N,Non-UBC,Current,Retail,,,,PLAN,20200708210717,{E76A7753-6047-4848-A5AB-E9AECB5FE9B1},CO14,Commercial,0-5,Legal Entities,-123.249918,49.266987
POI-197,VAD11023,Hannah and Samuel Flower Shop,,,University Village Pharmacy,,commercial_services,,http://www.hsflowers.ca/,Phone: (604) 228-0113,M-F: 9:30am - 6:30pm; Sat: 10am - 6pm; Sun: Closed,N,UEL,UEL,Services,,,,PLAN,20200708210717,{BCFD2C0A-F37C-4E19-AE77-2548C744EC5F},CO14,Commercial,0-5,Legal Entities,-123.243636,49.266226
POI-332,VAD10023,Ike's Cafe,Ike's,,Irving K. Barber,,cafe,,http://www.food.ubc.ca/place/ikes/,Phone: (604) 827-3926,"M,Thurs,F: 6:30am - 4pm; Tues/Wed: 6:30am - 7:30pm; Sat/Sun: 6:30am - 9:30am",N,SHHS,Current,Services,,,,PLAN,20200708210716,{62B02A23-0702-4BCE-9BE7-5B4E46438375},CO4,Commercial,10-15,Legal Entities,-123.252765,49.267202
POI-227,VAD11023,Starbucks,,,University Village,,cafe,,http://www.food.ubc.ca/place/starbucks/,Phone: (604) 221-0200,M-F: 6am - 10:30pm; Sat/Sun: 7am - 10pm,N,UEL,UEL,Services,,,,PLAN,20200708210716,{F2A4C522-5B97-4C4F-BE74-C8B16750B0CF},CO4,Commercial,10-15,Legal Entities,-123.242749,49.26585
POI-330,VAD10490,Law Cafe,,,"Allard Hall, Second floor",,cafe,,http://www.food.ubc.ca/place/law-cafe/,Phone: (604) 827-1524,M-F: 7:30am - 7:30pm,N,SHHS,Current,Services,,,,PLAN,20200708210716,{956F1C39-BFB2-4019-96BD-556649DAFA3E},CO4,Commercial,5-10,Legal Entities,-123.253654,49.269952
POI-331,VAD10479,IRC Snack Bar,,,Woodward - IRC,,cafe,,http://www.food.ubc.ca/place/irc-snackbar/, Phone: (604) 822-4291,M-F: 7:30am - 3pm; Sat/Sun: Closed,N,SHHS,Current,Services,,,,PLAN,20200708210716,{38EFB5E5-04F5-4278-A012-CDFC7CEA18E1},CO4,Commercial,5-10,Legal Entities,-123.247315,49.264666
POI-333,VAD10474,Great Dane Coffee,,,Westpoint,,cafe,,http://www.greatdanecoffee.com/,Phone: (604) 558-2190; Email: andrew@greatdanecoffee.com,M-F: 7:30am - 5pm; Sat/Sun: Closed,Y,Non-UBC,Current,Services,,,,PLAN,20200708210716,{37DC4E18-4397-4631-9ED9-C81A9FBAD09D},CO4,Commercial,10-15,Legal Entities,-123.250735,49.270078
POI-334,VAD10106,Daily Dose Cafe,,,Pharmaceutical Sciences Building,,cafe,,http://www.food.ubc.ca/place/daily-dose/,Phone: (604) 827-1521,M-F: 7:30am - 3pm,N,SHHS,Current,Services,,,,PLAN,20200708210716,{53D6ACB2-99C5-43C2-89B6-9931288BBB82},CO4,Commercial,0-5,Legal Entities,-123.243047,49.2625
POI-340,VAD10100,Bean Around The World,,,Old Barn Community Centre,,cafe,,https://batwcoffee.com/pages/bean-around-the-world-ubc,Phone: (604) 568-8893,M-F: 7am - 7pm; Sat/Sun: 8am - 6pm,Y,Non-UBC,Current,Services,,,,PLAN,20200708210716,{6B7C2FFD-5573-4A1B-A3AD-406A04374D91},CO4,Commercial,10-15,Legal Entities,-123.248048,49.258854
POI-228,VAD10891,Pita Pit,,,University Village,,cafe,,http://pitapit.ca/,Phone: (604) 221-7488; Email: info@pitapit.com; Fax: (604) 221-7487,M-Thurs: 10:30am - 1:00am; Fri-Sat: 10:30am - 2:00am; Sun: 11am - 1am,N,UEL,UEL,Services,,,,PLAN,20200708210716,{8F03320C-B319-4B50-9D27-12288651806B},CO3,Commercial,10-15,Legal Entities,-123.242124,49.26609
POI-233,VAD11023,Vera's Burger Shack,,,University Village,,cafe,,http://www.verasburgershack.com/,Phone: (604) 221-8372,Daily: 10:30am - 10:30pm,N,UEL,UEL,Services,,,,PLAN,20200708210716,{8258A070-4A57-41EB-84B9-A7C6DD54416C},CO3,Commercial,10-15,Legal Entities,-123.243271,49.265799
POI-234,VAD11023,Oven Fresh Bakery,,,University Village,,cafe,,,Phone: (604) 222-8886,M-F: 8am - 7pm; Sat: 9am - 6pm; Sun: 9:30am - 6pm,N,UEL,UEL,Services,,,,PLAN,20200708210716,{7A6B3B77-CE3E-4BDE-9CB6-3606F1B089E3},CO4,Commercial,5-10,Legal Entities,-123.243468,49.266037
POI-235,VAD11023,Maurya Express,,,University Village,,cafe,,https://mauryaexpress.ca/,Phone: (604) 225-2288,Daily: 11am - 9pm,N,UEL,UEL,Services,,,,PLAN,20200708210717,{BC26F0EF-57F7-4063-835D-1D616F18FB84},CO2,Commercial,5-10,Legal Entities,-123.243445,49.26601
POI-265,VAD10100,Old Barn Community Centre Exercise Room,,,Old Barn Community Centre,,athletics,http://www.oldbarn.ca/wp-content/uploads/Gym5858.jpg,https://wearecommunityvan.ca/,reception@oldbarn.ca</br>Phone: (604) 827-4469,Daily: 7am - 7pm,N,UNA,Current,Services,,,,PLAN,20200708210713,{A90505AF-E471-4E96-944A-B0190517B9C1},CO16,Commercial,0-5,Legal Entities,-123.248394,49.259014
POI-259,VAD11068,More Bikes,,,Mews,,retail,,http://www.morebikes.ca/,Phone: (604) 558-1528,M-Sat: 10am - 6pm; Sun: 11am - 5pm,Y,Non-UBC,Current,Retail,,,,PLAN,20200708210712,{0E30F013-7F82-4BDA-BF20-F96FEF6EE2D6},CO14,Commercial,5-10,Legal Entities,-123.235877,49.254466
POI-260,VAD10197,Mozart School of Music,,,MBA House,,commercial_services,,http://www.msmvan.com/,Phone: (604) 345-9680,For Hours Please See: http://msmvan.com/classes/schedule/,Y,Non-UBC,Current,Services,,,,PLAN,20200708210713,{0B22B875-45EF-4332-AC4E-2EF9F4BF3F0F},CO15,Commercial,5-10,Legal Entities,-123.235255,49.253713
POI-263,VAD10147,UBC Tennis Centre,,,UBC Tennis Centre,,athletics,http://www.infrastructuredevelopment.ubc.ca/rrs2/photos/432.jpg,http://www.recreation.ubc.ca/tennis/,Phone: (604) 822-2505; Email: tennis.centre@ubc.ca,M-F: 8am - 10pm; Sat/Sun: 8am - 10pm,N,Athletics,Current,Services,,,,PLAN,20200708210713,{E53164C4-BA70-44E1-934E-99BBDDAEBE3C},CO16,Commercial,5-10,Legal Entities,-123.244938,49.259754
POI-42,VAD11023,Dental Speciality Clinics,,,J.B. Macdonald Building,,campus_services,,,,,N,UBC,Current,Civic,,,,PLAN,20200708210713,{E9878400-D207-4B0C-AC30-7FB20639364E},SD2,Health,,Urban Facilities,-123.245464,49.265607
POI-48,VAD11126,Student Health Services,,,UBC Hospital - Koerner Pavilion,,campus_services,,https://students.ubc.ca/health-wellness/student-health-service,Phone: (604) 822-7011; Email: student.health@ubc.ca; Fax: 1 855 822-7212,"Mon, Tues, Wed, Fri: 8am - 4pm; Thurs: 9am - 4pm; Sat/Sun: Closed",N,UBC,Current,Services,,,,PLAN,20200708210713,{1CC900B4-A8A5-4D7B-BA97-4D7C24CE04FA},SD1,Health,,Urban Facilities,-123.245718,49.263984
POI-96,VAD10069,Wesbrook Village Dental Ctr,,,Tapestry,,commercial_services,,http://www.wesbrookvillagedental.com/,Phone: (604) 221-7600; Email: info@wesbrookvillagedental.com,"Mon, Tues, Thurs: 8:30am - 5pm; Wed: 9am - 6pm; Fri: 7:30am - 2pm; Sat/Sun: Clos",Y,Non-UBC,Current,Services,,,,PLAN,20200708210713,{495F81CE-F541-42DC-BE3C-2BA725C82928},SD2,Health,,Urban Facilities,-123.235294,49.25476
POI-120,VAD11083,Graduate and Postdoctoral Studies,,,Thea Koerner House,,faculty/school,,https://www.grad.ubc.ca/,Phone: (604) 822-2848; Fax: (604) 822-5802,M-F: 8:30am - 4pm,N,UBC,Current,Civic,,,,PLAN,20200708210713,{13081F70-7F1E-4902-A996-86A368C29BA0},,,,Academic,-123.257877,49.268419
POI-511,VAD10100,Old Barn Community Centre,,,Old Barn Community Centre,,campus_services,,https://www.myuna.ca/recreation/,Phone: (604) 827-4469,M-F: 7am - 9:30pm; Sat-Sun: 8:30am - 10pm,,,Current,,,GISSTUD1,20180117190927,NIKT,20200713231308,{0048CC7B-47BE-454A-B3A2-C48A0D88F8BF},CU1,Cultural,,Urban Facilities,-123.248329,49.258927
POI-514,VAD10616,AMS Sexual Assault Support Center,,SASC,AMS Nest,,campus_services,,https://www.ams.ubc.ca/student-services/sasc/,Phone: (604) 827-5180; Email: sasc@ams.ubc.ca,Daily: 8am - 10pm,,,Current,,,GISSTUD1,20180116231607,NIKT,20200713231042,{8C9D8A5A-1D63-4EE0-AFA6-00A0FBF37782},BS4,Social welfare,,Urban Facilities,-123.249865,49.266446
POI-500,VAD10616,TBD ,lowercase,,AMS Nest,,cafe,,http://www.food.ubc.ca/place/lowercase/,,,,AMS,Future,,,,,NIKT,20200713231144,{5239FADD-B784-47B0-9115-FEDD77509060},,,,,-123.250247,49.266873
POI-515,VAD10616,The Pride Collective,UBC Pride,,AMS Nest,,campus_services,,https://www.prideubc.com/,Email: prideubc@gmail.com,,,,Current,,,GISSTUD1,20180116231731,NIKT,20200713231309,{7A883A55-0ADE-4CE9-AD28-0C2C9A15EB5D},BS4,Social welfare,,Urban Facilities,-123.249865,49.266446
POI-510,VAD10781,Wesbrook Community Centre,,,Wesbrook Community Centre,,campus_services,,https://www.myuna.ca/,Phone: (604) 822-4227,M-Th: 8:30am - 10pm; Fri: 8:30am - 8:30pm; Sat-Sun: 8:30am - 6pm,,,Current,,,GISSTUD1,20180117190927,NIKT,20200713231309,{CEBB606B-A92E-4A88-A5D6-8A97A662779E},CU1,Cultural,,Urban Facilities,-123.237509,49.25402
POI-503,VAD10491,BC Ambulance Service Station 262,BC Ambulance Service,,Ambulance Station,,campus_services,,,,Open 24 Hours,,,Current,,,GISSTUD1,20180117190927,NIKT,20200713231309,{AD5ADFBE-1BBB-4FCD-81CB-CF4AA2C84F2B},CI4,Civic,10-15,Legal Entities,-123.243553,49.263274
POI-507,VAD10106,Pharmacists Clinic,,,Pharmaceutical Sciences Building,,medical,,,,,,,Current,,,GISSTUD1,20180117190435,NIKT,20200713231309,{BB0628E9-5D5B-4F63-9347-3D18D9F726F5},SD2,Health,,Urban Facilities,-123.243073,49.262413
POI-513,VAD10616,UBC Women's Center,,,AMS Nest,,campus_services,,,,,,,Current,,,GISSTUD1,20180116231442,NIKT,20200713231309,{E9D09F8B-62AE-49B2-B04E-2C948629AF45},BS4,Social welfare,,Urban Facilities,-123.249865,49.266446
POI-501,VAD10616,Porch,,,"AMS Nest, Level 1",,cafe,,http://www.ams.ubc.ca/foodanddrink/porch/,Email: EMAIL@ams.ubc.ca,M-F 9am - 3pm,,,Current,,,GISSTUD1,20180117190927,NIKT,20200713231309,{ED9ECE9F-F225-4A5D-B4DF-C278A6FF9160},CO4,Commercial,5-10,Legal Entities,-123.249221,49.266214
POI-520,VAD10080,Eaton Arrowsmith School,,,TEF3,,school,,http://www.eatonarrowsmith.com/,Phone: (604) 264-8327,M-F: 8am - 5pm,,,Current,,,GISSTUD1,20180704225743,NIKT,20200713231309,{63C777E3-C30B-4612-AFCA-8E0AB8438305},ED2,,,Urban Facilities,-123.246383,49.261285
POI-540,VAD10774,UBC Properties Trust,UBC Properties Trust General Office,,Wesbrook Professional Centre,,other,,https://www.ubcproperties.com/,Phone: (604) 731-3103,,,,Current,,,GISSTUD1,20180713174847,NIKT,20200714214244,{D2D4D906-FB6D-4FB4-B74F-306E2E2BA097},,,,,-123.236379,49.254516
POI-310,VAD10364,Vanier's Dining Room,,,Place Vanier Residence,,restaurant,,http://www.food.ubc.ca/place/vaniers-dining-room/,Phone: (604) 822-2622,M-Thur: 7am - 8:15pm; Fri: 7am - 7:30pm; Sat/Sun: 8am - 7:30pm,N,SHHS,Current,Services,,,,NIKT,20200715214505,{464B9670-2461-45B5-BED6-E868EB14833E},CO2,Commercial,15-20,Legal Entities,-123.258773,49.264669
POI-541,VAD11044,The Eatery,,,Engineering Student Centre,,cafe,,https://ubcengineers.ca/eatery/,Email:eatery@ubcengineers.ca,"Mon-Fri, 9:30am - 3pm",,,Current,,,GISSTUD1,20180718230428,NIKT,20200713213251,{C4E681BB-38D2-415F-9943-30DD3D3E831E},CO4,Commercial,5-10,Legal Entities,-123.249216,49.262228
POI-506,VAD10080,Magnussen School,,,TEF3,,school,,http://www.eatonarrowsmith.com/,Phone: (604) 264-8327,M-F: 8am - 5pm,,,Current,,,GISSTUD1,20180117190435,NIKT,20200713213331,{FC20DFC8-5CBE-4522-AC3A-432D6B8A9AF0},ED1,Education,,Urban Facilities,-123.246443,49.26127
POI-516,VAD11128,UBC Studios,,,University Services Building,,campus_services,,http://ubcstudios.ubc.ca/,Phone: (604) 822-9800; Email: ubc.studios@ubc.ca,,,,Current,,,GISSTUD1,20180122234414,NIKT,20200713213407,{E7912E83-D2FD-4B19-9236-B1A4241BE7FD},,,,Urban Facilities,-123.253665,49.260605
POI-312,VAD10604,Hubbard's,,,Place Vanier Residence,,minimart,,http://www.food.ubc.ca/place/hubbards,Phone: (604) 822-5805,Daily: 5pm - 11pm,N,SHHS,Current,Retail,,,,NIKT,20200715214529,{EF9C6CE3-E7F6-48A1-B33E-A9438C8DECE7},CO10,Commercial,0-5,Legal Entities,-123.258818,49.264881
POI-543,VAD10091,Uncle Fatih's Pizza,,,Central,,restaurant,,http://orders.unclefatih.com/zgrid/themes/10788/intro/index.jsp,Phone: (604) 428-6253,M-Th: 10am - 1am; Fri: 10am - 3am; Sat: 10am - 2am; Sun: 10am - 12am,,,Current,,,GISSTUD1,20180719182209,NIKT,20200713213658,{DDA4FE06-227E-42B8-8929-9CB642EBC063},CO3,Commercial,10-15,Legal Entities,-123.247505,49.266209
POI-509,VAD10412,Allan McGavin Sports Medicine Clinic Physiotherapy,,,University Services Building,,medical,,https://www.allanmcgavinphysio.com/,,,,,Current,,,GISSTUD1,20180117190435,NIKT,20200713231309,{876D6C16-FFA5-48FD-B2F6-233B1EC5EDC1},SD2,Health,,Urban Facilities,-123.253832,49.261445
POI-424,VAD10364,Place Vanier Residence Front Desk,Front Desk,,Place Vanier Residence  ,,housing_student,,http://vancouver.housing.ubc.ca/residences/place-vanier/,,,N,SHHS,Current,,,,,NIKT,20200715214501,{6BBF59D3-7831-449A-ACB4-4A59CBFD43AE},,,,Academic,-123.258395,49.264747
POI-203,VAD11023,Granville Island Produce at University,,,University Village,,grocery,,,Phone: (604) 677-3388,,N,UEL,UEL,Food,,,,PLAN,20200708210742,{25BDA999-7AD3-4761-8D8B-B9B1A3572D9E},CO9,Commercial,0-5,Legal Entities,-123.243002,49.265752
POI-324,VAD11040,Magma Cafe,,,Earth Sciences Building,,cafe,,http://www.food.ubc.ca/place/magma-cafe/,Phone: (604) 827-1525,M-F: 7:30am - 3pm,N,SHHS,Current,Services,,,,PLAN,20200708210742,{28CFEEC9-5E80-4E9D-92E2-57DCC128558F},CO4,Commercial,5-10,Legal Entities,-123.251836,49.262784
POI-325,VAD11098,Mercante,Mercante Pizza,,Ponderosa Commons,,cafe,,http://www.food.ubc.ca/place/mercante/,Phone: (604) 827-2210,M-F: 8am - 9pm; Sat/Sun: 11am - 5pm,N,SHHS,Current,Services,,,,PLAN,20200708210742,{6A6C754A-A733-403B-9322-1B483D7D7CD7},CO2,Commercial,10-15,Legal Entities,-123.255011,49.263683
POI-202,VAD10891,Staples,,,University Village,,commercial_services,,http://www.staples.ca/,Phone: (604) 221-4780; Email: https://www.staples.ca/sbdca/en_CA/content/help-centre/contact-us.html,M-F: 9am - 7pm; Sat: 10am - 6pm; Sun: 10am - 6pm,N,UEL,UEL,Services,,,,PLAN,20200708210742,{03D825B4-91EA-44E2-861C-6C8F6E6FC4C4},CO15,Commercial,10-15,Legal Entities,-123.242197,49.26626
POI-204,VAD10891,House of Vision,,,University Village,,retail,,http://houseofvisionoptical.com/,Phone: (604) 225-0708; Email: houseofvisionoptical@gmail.com; Fax: (604) 225-0709,M-F: 10am - 6:30pm; Sat: 10am - 6pm; Sun: 11am - 5pm,N,UEL,UEL,Retail,,,,PLAN,20200708210742,{1D71454C-4EF0-4A41-98F5-D12E2E9D9ABB},CO14,Commercial,0-5,Legal Entities,-123.242308,49.266
POI-206,VAD11023,Prime News,,,University Village,,retail,,,Phone: (604) 221-1197,M-Thurs: 10am - 7pm; Fri: 10am - 9pm; Sat: 11am - 7pm,N,UEL,UEL,Retail,,,,PLAN,20200708210742,{3550F4F1-154F-4A37-8FDE-306DEF03CC59},CO14,Commercial,0-5,Legal Entities,-123.24304,49.266004
POI-208,VAD11023,Little Mountain Learning Academy ,,,University Village,,commercial_services,,http://www.lmacademics.com/,Phone: (604) 221-2363,M-F: 9am - 6pm; Sat/Sun: Closed,N,UEL,UEL,Services,,,,PLAN,20200708210742,{F2847F81-898E-44AF-9E16-C9ACD8BDCF49},CO15,Commercial,5-10,Legal Entities,-123.243049,49.265798
POI-211,VAD11023,Discount Textbooks,,,University Village,,retail,,http://www.discounttextbooks.ca/,Phone: (604) 221-1822,For Store Hours: https://www.facebook.com/discounttextbooks/,N,UEL,UEL,Civic,,,,PLAN,20200708210742,{486A4206-6049-47C4-872C-096D01AEA7AB},CO14,Commercial,5-10,Legal Entities,-123.243061,49.265917
POI-341,VAD11070,Menchie's Frozen Yogurt,,,Tapestry,,cafe,,http://www.menchies.ca/,Phone: (604) 558-1622,M-Sun: 11:30am - 10pm,Y,Non-UBC,Current,Services,,,,PLAN,20200708210742,{0DB6D1A3-D546-4E43-984F-F8CD32FFE3FC},CO1,Commercial,10-15,Legal Entities,-123.234979,49.254372
POI-342,VAD11060,Jugo Juice,,,Tapestry,,cafe,,http://www.jugojuice.com/en/locations/british-columbia,Phone: (604) 221-6116,Daily: 9am - 7:30pm,Y,Non-UBC,Current,Services,,,,PLAN,20200708210742,{565F5726-46E2-4B5E-93E2-64F5C8A5CEF1},CO4,Commercial,10-15,Legal Entities,-123.235059,49.25447
POI-343,VAD10066,Dough Girls Baking,,,Mews,,cafe,,http://www.doughgirlsbakeshop.com/,Phone: (604) 333-5474,M-Sat: 8am - 6pm; Sun: 9am - 5pm,Y,Non-UBC,Current,Services,,,,PLAN,20200708210742,{93B9CDDD-AB94-4C16-999E-7D13776D5505},CO4,Commercial,5-10,Legal Entities,-123.235908,49.254567
POI-275,VAD10168,Ponderosa Commons Studio,,,Ponderosa Commons Arbutus House,,athletics,,http://www.recreation.ubc.ca/home-page/contact-us/contact-info-ponderosa-commons/,Phone: (604) 822-6000; Email: src.operations@ubc.ca ,http://www.recreation.ubc.ca/drop-in/,N,Athletics,Current,Services,,,,PLAN,20200708210743,{666F68FE-A5B2-4803-AAB1-C4C2B4D8CB86},CO16,Commercial,0-5,Legal Entities,-123.255682,49.263528
POI-497,VAD10103,Open Kitchen,Open,,Orchard Commons,,restaurant,http://www.food.ubc.ca/wp-content/uploads/2016/07/Open-Kitchen-UBC.zip,http://www.food.ubc.ca/place/open-kitchen/,Phone: (604) 827-4450,M-F: 11am - 2pm; Sat/Sun: Closed,,SHHS,Current,Services,,,,PLAN,20200708210743,{1DC3480F-568F-43D2-8F28-B50443DC62B8},CO2,Commercial,10-15,Legal Entities,-123.251385,49.260585
POI-498,VAD10103,Hero Coffee + Market,Hero,,Orchard Commons,,cafe,,http://www.food.ubc.ca/place/hero/,Phone: (604) 827-2031,Needs Updating,,SHHS,Current,Services,,,,PLAN,20200708210743,{D70ACA9A-4F10-4DBF-BCBD-F8841095FBF4},CO4,Commercial,5-10,Legal Entities,-123.25127,49.260623
POI-273,VAD10781,Wesbrook Fitness Centre,,,Wesbrook Community Centre,,athletics,,https://wearecommunityvan.ca/sports-fitness/fitness-centre/,Phone: (604) 822-4227,M-Thurs: 6am - 10pm; Fri: 6am - 8:30pm; Sat/Sun: 8:30am - 7pm; Holidays: 12pm - ,N,UNA,Current,Services,,,,PLAN,20200708210743,{E8503EC0-D1F6-4781-998D-60832C733285},CO16,Commercial,5-10,Legal Entities,-123.237524,49.25416
POI-306,VAD10032,Sage Bistro,,,Leon and Thea Koerner University Centre,,restaurant,,http://www.food.ubc.ca/place/sage/ ; https://sage.ubc.ca/,Phone: (604) 822-0968,M-F: 11:30am - 2:00pm; Sat and Sun: Closed,N,SHHS,Current,Services,,,,PLAN,20200708210743,{16665DDB-6EEB-492E-864D-DA424BCD2E77},CO2,Commercial,15-20,Legal Entities,-123.256925,49.268815
POI-58,VAD10023,"Centre for Teaching, Learning and Technology (CTLT)",,,Irving K. Barber Learning Centre,,department,,http://ctlt.ubc.ca/,Phone: (604) 827-0360; Email: ctlt.info@ubc.ca; Events: ctlt.events@ubc.ca; Fax: (604) 822-9826,,N,UBC,Current,Civic,,,,PLAN,20200708210743,{FE577749-BC1E-4677-94A7-53D4FBCED56D},,,,Academic,-123.252633,49.267543
POI-83,VAD10377,Ceremonies and Events ,UBC Ceremonies & Events,,Ponderosa Office Annex B,,campus_services,,http://ceremonies.ubc.ca/,Phone: (604) 822-2484; Email: ceremonies.office@ubc.ca; Fax: (604) 822-9060,,N,UBC,Current,,,,,PLAN,20200708210743,{288B7223-CA3D-410E-B19A-EB6908B396CB},,,,Academic,-123.255945,49.264806
POI-359,VAD10023,Chapman Learning Commons,,,Irving K. Barber Learning Centre,,campus_services,,http://learningcommons.ubc.ca/,Phone: (604) 827-3909; Email Learning Services Librarian: alex.kuskowski@ubc.ca,M-Thurs: 8am - 10pm; Fri: 8am - 6pm; Sat & Sun: 10am - 6pm,N,Library,Current,,,,,PLAN,20200708210743,{431DF689-1AB7-4459-BAF8-A73D1CA1D70C},,,,Academic,-123.25293,49.267627
POI-101,VAD11138,Chef Hung Taiwanese Beef Noodle,,,Wesbrook Professional Centre,,restaurant,,https://www.chefhungnoodle.com/home.php,Phone: (604) 228-8765,Daily: 11am - 9pm,Y,Non-UBC,Current,Services,,,,PLAN,20200708210743,{1DD22006-037C-455F-8A0C-D12BABD28C11},CO2,Commercial,10-15,Legal Entities,-123.236285,49.254322
POI-67,VAD10845,Father David Bauer Arena,,,Doug Mitchell Centre,,athletics,,https://thunderbirdarena.ubc.ca/venue/father-david-bauer-arena/,Phone: (604) 822-6121,M-F: 9am - 5pm,N,Athletics,Current,Services,,,,PLAN,20200708210743,{D2C994AE-343D-4854-8817-EF85A2D32A55},DE3,Sports,,Urban Facilities,-123.241947,49.260412
