POI_ID,ADD_ID,PLACENAME,PLACENAME2,ABBREVIATEDPLACENAME,BL_NAME,BL_CLASS,SERVICE_TYPE,PHOTOURL,URL,CONTACT,HOURS,LICENSE,MANAGE,STATUS,LEED,HTML,CREATED_USER,CREATED_DATE,LAST_EDITED_USER,LAST_EDITED_DATE,GLOBALID,BCN_CODE,BCN_LANDUSE,BCN_NOEMP,BCN_CLASS,LAT,LONG
VPOI10389,VAD10712,Little Raven Child Care,Little Raven,CCS5,Child Care Services,,child_care,,https://childcare.ubc.ca/,Phone: (604) 822-5343; Email: childcare@housing.ubc.ca; Fax: (604) 822-9195,"Office Hours, M-F: 8:30am - 4:30pm",N,SHHS,Current,Civic,,,,PLAN,20210616200717,{F7998A6F-5040-40CA-8C15-C125206C601A},BS6,Social welfare,,Urban Facilities,-123.233699,49.26005
VPOI10390,VAD10709,Lluvia Child Care,Lluvia,CCAB,Child Care Admin Building,,child_care,,https://childcare.ubc.ca/,Phone: (604) 822-5343; Email: childcare@housing.ubc.ca; Fax: (604) 822-9195,"Office Hours, M-F: 8:30am - 4:30pm",N,SHHS,Current,Civic,,,,PLAN,20210616200717,{A588131C-0372-46E9-B69F-CD1E394631ED},BS6,Social welfare,,Urban Facilities,-123.234315,49.260797
VPOI10391,VAD11096,Kittiwake Child Care,Kittiwake,CCS1,Child Care Services,,child_care,,https://childcare.ubc.ca/,Phone: (604) 822-5343; Email: childcare@housing.ubc.ca; Fax: (604) 822-9195,"Office Hours, M-F: 8:30am - 4:30pm",N,SHHS,Current,Civic,,,,PLAN,20210616200717,{4FB0AA84-BC7D-41C5-A493-B87CA4DDA0DC},BS6,Social welfare,,Urban Facilities,-123.235229,49.260072
VPOI10392,VAD11100,Sandpiper Child Care,Sandpiper,CCS2,Child Care Services,,child_care,,https://childcare.ubc.ca/,Phone: (604) 822-5343; Email: childcare@housing.ubc.ca; Fax: (604) 822-9195,"Office Hours, M-F: 8:30am - 4:30pm",N,SHHS,Current,Civic,,,,PLAN,20210616200717,{BAAC4E91-D101-4DC4-8557-A1C5D7FEB443},BS6,Social welfare,,Urban Facilities,-123.234869,49.26027
VPOI10393,VAD10714,Lilliput Child Care,Lilliput,CCS1,Child Care Services,,child_care,,https://childcare.ubc.ca/,Phone: (604) 822-5343; Email: childcare@housing.ubc.ca; Fax: (604) 822-9195,"Office Hours, M-F: 8:30am - 4:30pm",N,SHHS,Current,Civic,,,,PLAN,20210616200717,{883A3D35-8938-4229-9560-E8631CA6966A},BS6,Social welfare,,Urban Facilities,-123.235284,49.259441
VPOI10394,VAD10714,Summer of '73 Child Care,Summer of '73,CCS1,Child Care Services,,child_care,,https://childcare.ubc.ca/,Phone: (604) 822-5343; Email: childcare@housing.ubc.ca; Fax: (604) 822-9195,"Office Hours, M-F: 8:30am - 4:30pm",N,SHHS,Current,Civic,,,,PLAN,20210616200717,{E842E1D6-7CD9-4D61-AEA4-30DC13B4BD72},BS6,Social welfare,,Urban Facilities,-123.235653,49.259376
VPOI10407,VAD10440,St. Mark's Chapel,,,St. Mark's College,,worship,,http://www.stmarksparishvancouver.ca/,Phone: (604) 822-0261; Email: parish.smark@rcav.org,M-F: 12:10pm; Sunday: 9:30am,N,Non-UBC,Current,Civic,,,,RACHELW,20210630204321,{A6B56842-702E-4BE6-AFC8-EAE515E7B596},CI1,Civic,0-5,Legal Entities,-123.249007,49.272035
VPOI10360,VAD10436,St. Andrew's Hall,,,St. Andrew's Hall,,worship,,http://www.standrews.edu/,Phone: (604) 822-9720; Email: bpaul@standrews.edu,M-F: 9am - 5pm,N,Non-UBC,Current,Civic,,,,RACHELW,20210630204323,{C5AC2B4C-6144-49D7-ACC3-4F8FB76D7E6B},CI1,Civic,5-10,Legal Entities,-123.251896,49.270357
VPOI10010,VAD10706,Epiphany Chapel,,,Epiphany Chapel,,worship,,,Phone: (604) 822-9815,,N,Non-UBC,Current,Civic,,,,RACHELW,20210630204324,{8F3B4519-0EEE-4881-AB79-41034A2AA5F6},CI1,Civic,0-5,Legal Entities,-123.252257,49.271581
VPOI10413,,University Drycleaners,,,University Village,,commercial_services,,http://www.universitydrycleaners.org/,Phone: (604) 228-9414; Email: universityubcdc1@yahoo.com,"Mon, Tues, Thurs: 9am - 5pm; Wed, Fri: 9am - 3pm; Sat: 10am - 1pm; Sun: Closed",N,UEL,UEL,Services,,,,RACHELW,20210629234239,{8C9AE050-27A3-4E1D-A6D1-78D2CD1F4613},CO15,Commercial,0-5,Legal Entities,-123.242984,49.266635
VPOI10412,,Copiesmart,,,University Village,,commercial_services,,http://www.copiesmart.com/,Phone: (604) 222-3189; Email: info@copiesmart.com; Fax: (604),M-F: 8:30am - 5pm; Sat: 10am - 5pm; Sun: Closed,N,UEL,UEL,Services,,,,RACHELW,20210629234240,{47D5AF31-F760-4417-BC4A-CB0AC6333FB5},CO15,Commercial,5-10,Legal Entities,-123.242862,49.266658
VPOI10416,VAD10815,Beaty Biodiversity Museum,Beaty Museum,,Beaty Biodiversity Centre,attraction,attraction,http://www.infrastructuredevelopment.ubc.ca/rrs2/photos/314.jpg,http://biodiversity.ubc.ca/,Phone: (604) 822-0862; Email: biodiversity.centre@ubc.ca; Fax: (604) 827-5350,Tues-Sun: 10am - 5pm,N,UBC,Current,Civic,,,,RACHELW,20210630212831,{D5508BB2-D633-4195-8CB4-AC19915E5202},CO12,Commercial,10-15,Legal Entities,-123.251062,49.263357
VPOI10209,VAD10082,Wesbrook Village Welcome Centre,,,Tapestry,,attraction,,http://www.discoverwesbrook.com/,Phone: (604) 228-2025; Email: info@discoverwesbrook.com,Daily: 10am - 6pm,N,UBCPT,Current,Civic,,,,RACHELW,20210630204803,{337BADCF-2A27-4CF8-8BF7-35C8CB1A02DF},CU1,Cultural,,Urban Facilities,-123.234808,49.254162
VPOI10119,VAD10886,Chan Shun Concert Hall,,,Chan Centre for the Performing Arts,,attraction,,http://chancentre.com/about/,,,N,UBC,Current,Civic,,,,RACHELW,20210630204804,{DFEF43A3-3B2A-4E02-B556-9E428AFF49B9},CO12,Commercial,10-15,Legal Entities,-123.255071,49.269781
VPOI10118,VAD10886,Royal Bank Cinema,,,Chan Centre for the Performing Arts,,attraction,,http://chancentre.com/about/,,,N,UBC,Current,Civic,,,,RACHELW,20210630204804,{EDD99735-EF8E-448D-9B52-D75976CECD4C},CO12,Commercial,0-5,Legal Entities,-123.255071,49.269781
VPOI10117,VAD10886,Telus Studio Theatre,,,Chan Centre for the Performing Arts,,attraction,,http://chancentre.com/about/,,,N,UBC,Current,Civic,,,,RACHELW,20210630204805,{B7562F63-F65A-4BD5-9BB7-5A86C01BAE65},CO12,Commercial,0-5,Legal Entities,-123.255071,49.269781
VPOI10073,VAD11106,Norm Theatre,,,Student Union Building,,attraction,http://www.infrastructuredevelopment.ubc.ca/rrs2/photos/790.jpg,http://www.ams.ubc.ca,webeditor@ams.ubc.ca</br>Phone: (604) 822-2901,,N,AMS,Current,Civic,,,,RACHELW,20210630204805,{BE4940A4-357B-4A70-AC7A-C6F3ACC76060},CO12,Commercial,0-5,Legal Entities,-123.250105,49.267434
VPOI10072,VAD10178,Morris and Helen Belkin Art Gallery,,,Morris and Helen Belkin Art Gallery,,attraction,http://www.infrastructuredevelopment.ubc.ca/rrs2/photos/568.jpg,http://belkin.ubc.ca,belkin.gallery@ubc.ca</br>Phone: (604) 822-2759,Mon: Closed; Tues - Fri: 10am - 5pm; Sat/Sun: 12pm - 5pm,N,UBC,Current,Civic,,,,RACHELW,20210630204806,{CCB99D88-0F4E-4B62-A2FC-F0C4F13F125C},CO12,Commercial,5-10,Legal Entities,-123.256166,49.268136
VPOI10071,VAD10180,Roy Barnett Recital Hall,,,Music Building,,attraction,http://www.infrastructuredevelopment.ubc.ca/rrs2/photos/575.jpg,http://www.music.ubc.ca/about-us/facilities/roy-barnett-recital-hall.html,,,N,UBC,Current,Civic,,,,RACHELW,20210630204806,{9BD82704-896B-41CD-BB9F-D95F2103B660},CO12,Commercial,5-10,Legal Entities,-123.256806,49.267439
VPOI10064,VAD11146,Humanities & Social Sciences,,,Walter C. Koerner Library,,library,http://www.infrastructuredevelopment.ubc.ca/rrs2/photos/515-1.jpg,http://www.library.ubc.ca/koerner,Information Desk: (604) 822-2725; Email: hssd.library@ubc.ca,M-Th: 8am - 8pm; Fri: 8am - 5pm; Sat:10am - 5pm; Sun: Closed,N,Library,Current,Civic,,,,RACHELW,20210630204852,{AD7BB9F3-24EC-48EF-9C42-BC0DBAA624AD},,,,Academic,-123.255131,49.266655
VPOI10344,VAD10490,Law Library,,,Allard Hall,,library,http://www.infrastructuredevelopment.ubc.ca/rrs2/photos/482.jpg,http://www.library.ubc.ca/law,Information Desk: (604) 822-2275,M-F: 9am - 5pm; Sat/Sun: Closed,N,Library,Current,Civic,,,,RACHELW,20210630204854,{62E60E57-91DA-4FC7-AB5E-52DD5551F936},CU2,Cultural,,Urban Facilities,-123.25298,49.270037
VPOI10078,VAD11146,Walter C. Koerner Library,,,Walter C. Koerner Library,,library,http://www.infrastructuredevelopment.ubc.ca/rrs2/photos/515-1.jpg,http://www.library.ubc.ca/koerner,Information Desk: (604) 822-2725,M-Th: 8am - 8pm; Fri: 8am - 5pm; Sat:10am - 5pm; Sun: Closed,N,Library,Current,Civic,,,,RACHELW,20210630204855,{4574B1C0-AF23-4DC8-B084-3376947C2808},CU5,Cultural,,Urban Facilities,-123.255131,49.266655
VPOI10079,VAD10023,"Music, Art & Architecture LIbrary",,,Irving K. Barber,,library,http://www.infrastructuredevelopment.ubc.ca/rrs2/photos/516.jpg,http://barber.library.ubc.ca/,Phone: (604) 822-3943; Email: maa.library@ubc.ca; Fax: (604) 822-3779,M-Thurs: 9am - 7pm; Fri: 9am - 5pm; Sat: 10am - 5pm; Sun: Closed ,N,Library,Current,Civic,,,,RACHELW,20210630204855,{9F4C9446-C9E1-45BD-9FE2-56FC9E54AF5F},CU2,Cultural,,Urban Facilities,-123.252976,49.267876
VPOI10082,VAD10023,Rare Books and Special Collections,,,Irving K. Barber,,library,http://www.infrastructuredevelopment.ubc.ca/rrs2/photos/516.jpg,http://rbsc.library.ubc.ca/,Phone: (604) 822-2521,M-F: 10am - 4pm; Sat/Sun: Closed,N,Library,Current,Civic,,,,RACHELW,20210630204856,{1A440388-BE5D-4BD6-8717-36A955D5E92B},ED4,Education,,Urban Facilities,-123.252976,49.267876
VPOI10207,VAD10184,Education Library,,,Scarfe,,library,http://www.infrastructuredevelopment.ubc.ca/rrs2/photos/234.jpg,http://education.library.ubc.ca/,Information Desk: (604) 822-3767,M-Th: 8am - 9pm; Fri: 8am - 5pm; Sat: 12pm - 5pm; Sun: Closed,N,Library,Current,Civic,,,,RACHELW,20210630204857,{A12C179F-2503-46B8-A1C2-105B147995F8},CU2,Cultural,,Urban Facilities,-123.253356,49.263796
VPOI10212,VAD10180,Music Library,,,Music Building,,library,http://www.infrastructuredevelopment.ubc.ca/rrs2/photos/575.jpg,http://music.library.ubc.ca,Information Desk: (604) 822-3589,M-F: 9am - 5pm; Sat/Sun: Closed,N,Library,Current,Civic,,,,RACHELW,20210630204857,{3EFE7CDA-940D-4BFE-B292-89F36DC21806},CU2,Cultural,,Urban Facilities,-123.256713,49.267347
VPOI10213,VAD10479,Woodward Library,,,Woodward Library,,library,http://www.infrastructuredevelopment.ubc.ca/rrs2/photos/536.jpg,http://www.library.ubc.ca/bmb/,Information Desk: (604) 822-2883,M-Th: 8am - 9pm; Fri: 8am - 5pm; Sat: 12pm - 5pm; Sun Closed,N,Library,Current,Civic,,,,RACHELW,20210630204858,{EEC6A580-7E5A-4F79-9928-99D957DCE1B3},CU2,Cultural,,Urban Facilities,-123.247504,49.264598
VPOI10227,VAD11146,Government Publications and Maps,,,Walter C. Koerner Library,,library,,http://guides.library.ubc.ca/maps-atlases,Phone: (604) 822-0645; Email: General Inquiries-chelsea.shriver@ubc.ca,,N,Library,Current,Civic,,,,RACHELW,20210630204859,{E475C129-3A9B-48B6-B30C-9BC77A9D29AD},,,,Academic,-123.255136,49.266665
VPOI10228,VAD11146,Data/GIS Lab,,,Walter C. Koerner Library,,library,,http://guides.library.ubc.ca/gis/home,Phone: (604) 822-5587; Email: paul.lesack@ubc.ca,,N,Library,Current,Civic,,,,RACHELW,20210630204859,{3871CC03-B1AE-4D2D-B388-B9E8F848A382},,,,Academic,-123.255108,49.266625
VPOI10168,VAD10827,David Lam Management Research Library,,,David Lam,,library,http://www.infrastructuredevelopment.ubc.ca/rrs2/photos/490.jpg,http://lam.library.ubc.ca/,Information Desk: (604) 822-9400,M-F: 9am - 5pm; Sat/Sun: Closed,N,Library,Current,Civic,,,,RACHELW,20210630204900,{68466833-EF22-45F5-9364-1B85BF614879},CU2,Cultural,,Urban Facilities,-123.254611,49.265778
VPOI10296,VAD10810,Asian Library,,,Asian Centre,,library,http://www.infrastructuredevelopment.ubc.ca/rrs2/photos/046.jpg,http://asian.library.ubc.ca,Circulation Desk: (604) 822-2427; Email: asian.library@ubc.ca; Fax: (604) 822-0650,M-F: 9am - 5pm; Sat: 12pm - 5pm; Sun: Closed,N,Library,Current,Civic,,,,RACHELW,20210630204903,{C9E93CEB-0115-4626-BF77-0356E041AA54},CU2,Cultural,,Urban Facilities,-123.258544,49.266727
VPOI10065,VAD11146,Microforms & Journals ,,,Walter C. Koerner Library,,library,http://www.infrastructuredevelopment.ubc.ca/rrs2/photos/515-1.jpg,http://www.library.ubc.ca/koerner,Information Desk: (604) 822-2725; Email: hssd.library@ubc.ca,M-Th: 8am - 8pm; Fri: 8am - 5pm; Sat:10am - 5pm; Sun: Closed,N,Library,Current,Civic,,,,RACHELW,20210630204904,{BA568A75-8108-45E7-AF33-981297BD70D0},,,,Academic,-123.255131,49.266655
VPOI10181,,Bubble Waffle Cafe,,,University Village,,cafe,,http://www.bubblewafflecafe.ca/,Phone: (604) 563-5444,M-F: 11am - 9pm; Sat/Sun: 12pm - 9pm,N,UEL,UEL,Services,,,,RACHELW,20210629234240,{71DB72B2-F92B-4DFA-AB39-8A7781543F85},CO4,Commercial,5-10,Legal Entities,-123.242693,49.266681
VPOI10177,,McDonald's,,,University Village,,cafe,,http://www.mcdonalds.ca/ca/en.html,Phone: (604) 221-2570,Daily: 24hrs,N,UEL,UEL,Services,,,,RACHELW,20210629234242,{A6B4ED04-0D19-4506-9D91-9A183E92EC75},CO3,Commercial,10-15,Legal Entities,-123.242512,49.266705
VPOI10225,,Suga Sushi,,,University Village,,cafe,,,Phone: (604) 228-9912,"M-F: 11am - 3pm, 5pm - 9pm; Sat: 10am - 9pm",N,UEL,UEL,Services,,,,RACHELW,20210629234242,{014F9423-88EC-449A-9168-5E6454E1E6A0},CO2,Commercial,10-15,Legal Entities,-123.242579,49.266697
VPOI10223,,International Food Court,,,University Village,,cafe,,,,M-Sun: 10am-10pm,N,UEL,UEL,Services,,,,RACHELW,20210629234243,{EE532DE8-A6D9-462E-A8D1-C1261E530E76},CO2,Commercial,10-15,Legal Entities,-123.242809,49.266633
VPOI10220,,Pizza Garden,,,University Village,,cafe,,http://www.pizzagarden.ca/,,,N,UEL,UEL,Services,,,,RACHELW,20210629234247,{A280DB19-D7B2-41A8-8144-912C30EDDE08},CO3,Commercial,10-15,Legal Entities,-123.243497,49.266465
VPOI10221,,A&W,,,University Village,,cafe,,http://www.aw.ca/,Phone: (604) 428-0060,Daily: 24hrs,N,UEL,UEL,Services,,,,RACHELW,20210629234247,{E7A3C60A-99E0-40B7-A05B-1CAD18EC3CF3},CO3,Commercial,10-15,Legal Entities,-123.243437,49.26647
VPOI10439,VAD10012,Hebb 100,Hebb 100,,Hebb Building,service,campus_services,,,,,,UBC,Current,Civic,,RACHELW,20210622051622,RACHELW,20210622190130,{BAC42973-742F-4909-95CB-6681C3744102},,,,Academic,-123.25131,49.266305
VPOI10068,VAD11148,UBC Conferences & Accommodation,Conferences Accommodation,,Walter Gage Residence,service,commercial_services,http://www.infrastructuredevelopment.ubc.ca/rrs2/photos/872-2.jpg,http://www.ubcconferences.com/,Phone: (604) 822-1060; Email: conferences@housing.ubc.ca; Fax: (604) 822-1001,,N,SHHS,Current,Services,,,,RACHELW,20210622190323,{190A6995-0BAD-489B-B989-204BF8E14992},,,,,-123.248693,49.269356
VPOI10027,VAD10023,Ike's Cafe,,,Irving K. Barber,cafe,cafe,,http://www.food.ubc.ca/place/ikes/,Phone: (604) 827-3926,"M,Thurs,F: 6:30am - 4pm; Tues/Wed: 6:30am - 7:30pm; Sat/Sun: 6:30am - 9:30am",N,SHHS,Current,Services,,,,RACHELW,20210622212829,{62B02A23-0702-4BCE-9BE7-5B4E46438375},CO4,Commercial,10-15,Legal Entities,-123.252686,49.267234
VPOI10408,,CIBC,,,University Village,,bank,,https://locations.cibc.com/bc/vancouver/05800?utm_source=google&utm_medium=distrib&utm_campaign=google-distrib,Phone: (604) 221-3550; Fax: (604) 224-5781; Toll-free: 1-800-465-2422,"Mon, Tues: 9am - 5pm; Wed-Fri: 9am - 7pm; Sat: 9am - 4pm; Sun: Closed",N,UEL,UEL,Services,,,,RACHELW,20210629234248,{40AA7547-784E-4092-97DE-8C4A189D08C9},CO5,Commercial,10-15,Legal Entities,-123.243781,49.26641
VPOI10410,,University Pharmacy,,,University Village,,pharmacy,,https://www.universitypharmacy.net/?utm_source=Google&utm_medium=maps&utm_campaign=Local_Presence,Phone: (604) 224-3202,M-F: 9am - 8pm; Sat/Sun: 10am - 6pm,N,UEL,UEL,Retail,,,,RACHELW,20210629234249,{B2342FB8-672A-4CB7-8286-C61C42710B87},CO7,Commercial,5-10,Legal Entities,-123.243272,49.266495
VPOI10222,,Blenz,,,University Village,,cafe,,http://blenz.com/,Phone: (604) 559-2618,M-F: 7am - 10pm; Sat/Sun: 8am - 10pm,N,UEL,UEL,Services,,,,RACHELW,20210629234252,{CBB16FBB-A738-4D37-9888-14FDA5A40644},CO4,Commercial,10-15,Legal Entities,-123.243576,49.266456
VPOI10004,,East Campus Park,East Campus Park,,,garden,park,,,,,N,UNA,Current,Civic,,,,RACHELW,20210629234421,{727712D5-E121-41E1-8DEE-C5E59E93DDDC},DE5,Sports,,Urban Facilities,-123.239873,49.262355
VPOI10005,,Whit Matthews Field,Whit Matthews,,,field,field,,,,,N,Athletics,Current,Services,,,,RACHELW,20210629234424,{25D0C742-DC51-4DCE-8D13-5A0C9E4C5AE8},DE4,Sports,,Urban Facilities,-123.243072,49.255214
VPOI10007,,Flag Pole Plaza,Flag Pole Plaza,,,garden,plaza,,,,,N,UBC,Current,Civic,,,,RACHELW,20210629234428,{B9A69572-38BE-44F9-857A-061B3CC52380},,,,,-123.256166,49.268884
VPOI10087,,UBC Skate Park,UBC Skate Park,,,garden,park,,,,,N,UNA,Current,Civic,,,,RACHELW,20210629234430,{FD2D86A3-885F-493E-9493-38EF39246E83},DE1,Sports,,Urban Facilities,-123.244471,49.260842
VPOI10122,,UBC Ropes Course,UBC Ropes Course,,,garden,athletics,http://www.flickr.com/photos/26230969@N08/3505922720/in/photostream/,http://www.palropescourse.com/,Email: info@palropescourse.com,,N,Non-UBC,Current,Services,,,,RACHELW,20210629234431,{FB3D4E7E-2D31-499B-AF19-7FC817139DED},CO16,Commercial,5-10,Legal Entities,-123.242797,49.254219
VPOI10193,,Michael Smith Park,Michael Smith Park,,,garden,park,,,,,N,UNA,Current,Civic,,,,RACHELW,20210629234435,{9C502DE4-AF35-4D4E-AAC9-F2E3E8BB6977},DE5,Sports,,Urban Facilities,-123.232653,49.253641
VPOI10195,,Varsity Field,Varsity,,,field,field,,,,,N,Athletics,Current,Services,,,,RACHELW,20210629234437,{A0AC36D8-C321-484E-A3A3-38F7F2516ED0},DE4,Sports,,Urban Facilities,-123.240435,49.257893
VPOI10196,,Chris Spencer Field,Chris Spencer,,,field,field,,,,,N,Athletics,Current,Services,,,,RACHELW,20210629234438,{9F30D8E7-1C70-4240-A20F-CC9F847456D3},DE4,Sports,,Urban Facilities,-123.239548,49.258146
VPOI10197,,Ken Woods Field,Ken Woods ,,,field,field,,,,,N,Athletics,Current,Services,,,,RACHELW,20210629234439,{CC8BFFF8-D344-4C13-BADC-3D69878FDE5C},DE4,Sports,,Urban Facilities,-123.243213,49.258198
VPOI10198,,Wolfson Field,Wolfson,,,field,field,,,,,N,Athletics,Current,Services,,,,RACHELW,20210629234440,{92361232-6B5B-4BFB-9F2D-F1EAD7844B0F},DE4,Sports,,Urban Facilities,-123.242335,49.25845
VPOI10199,,Harry Warren Field,Harry Warren,,,field,field,,,,,N,Athletics,Current,Services,,,,RACHELW,20210629234441,{D41CD5ED-0964-45A6-8217-1F5648DAF3E4},DE4,Sports,,Urban Facilities,-123.242521,49.257088
VPOI10200,,Harold Wright Field,Harold Wright,,,field,field,,,,,N,Athletics,Current,Services,,,,RACHELW,20210629234443,{8A1832B4-536D-4E4F-9FA7-3F878BB51041},DE4,Sports,,Urban Facilities,-123.241494,49.257476
VPOI10201,,Hawthorn Park,Hawthorn Park,,,garden,park,,,,,N,UNA,Current,Civic,,,,RACHELW,20210629234444,{390C740F-7D12-4B1A-95EA-6BFADE891AE8},DE5,Sports,,Urban Facilities,-123.248412,49.257875
VPOI10203,,Eagles Park,Eagles Park,,,garden,park,,,,,N,UNA,Current,Civic,,,,RACHELW,20210629234513,{C3A71C9A-D51A-4D4F-94D6-4670D28FB5E1},DE5,Sports,,Urban Facilities,-123.246395,49.258629
VPOI10204,,Jim Taylor Park,Jim Taylor Park,,,garden,park,,,,,N,UNA,Current,Civic,,,,RACHELW,20210629234515,{98B39304-865D-4B91-92DE-AA5BD2C1A28D},DE5,Sports,,Urban Facilities,-123.247873,49.25923
VPOI10183,,Arthur Lord Field,Arthur Lord ,,,field,field,,https://sportfacilities.ubc.ca/thunderbird-park/thunderbird-park-contact/,"Department of Athletics & Rec, Phone: (604) 827-2764; Fax: (604) 822-6011",(Field Hours) M-F: 9am - 11pm; Sat: 8am - 8pm; Sun: 8am - 11pm,N,Athletics,Current,Services,,,,RACHELW,20210629234520,{EB0EC6E2-FEA2-4D72-A5A3-95DCD1075E15},DE4,Sports,,Urban Facilities,-123.240254,49.259125
VPOI10185,,Nobel Park,Nobel Park,,,garden,park,,http://wesbrook.app2.thoughtshop.com/posts/nobel-park#.VYm4Wfm4S70,,,N,UNA,Current,Civic,,,,RACHELW,20210629234523,{430AB3AD-B3F4-428E-A63C-014FCB47DD4C},DE5,Sports,,Urban Facilities,-123.2333,49.250134
VPOI10186,,Mundell Park,Mundell Park,,,garden,park,,http://www.discoverwesbrook.com/posts/mundell-park#.WWPTuojyvcs,,,N,UNA,Current,Civic,,,,RACHELW,20210629234524,{C18F1919-F66C-4A72-A7B0-CD75CF4E5F89},DE5,Sports,,Urban Facilities,-123.236175,49.252312
VPOI10189,,Rasphal Dhillon Track & Field Oval,Rasphal Dhillon,,,field,field,,,,,N,Athletics,Current,Services,,,,RACHELW,20210629234526,{1CF98690-52ED-4464-B91C-5DC646CA6E78},DE4,Sports,,Urban Facilities,-123.238461,49.256579
VPOI10190,,Soccer Field,Soccer,,,field,field,,,,,N,Athletics,Current,Services,,,,RACHELW,20210629234528,{F14A8CF4-B5C9-4126-87D8-FA3F123EC6C0},DE4,Sports,,Urban Facilities,-123.241074,49.256638
VPOI10358,VAD10179,Cafe MOA,MOA Cafe,,Museum of Anthropology,cafe,cafe,,https://visit.ubc.ca/eat-drink-and-stay/cafes/cafe-moa/,Phone: (604) 827-1443,Monday: 10:30am - 2:30pm; Tues-Sun: 10am - 4:30pm,N,SHHS,Current,Services,,,,RACHELW,20210622032519,{2AB9245E-9CDD-436E-9DB6-EBD2EAA86AB5},CO4,Commercial,10-15,Legal Entities,-123.25917,49.269415
VPOI10191,,Baseball Field,Baseball,,,field,field,,https://sportfacilities.ubc.ca/thunderbird-park/thunderbird-park-contact/,"Department of Athletics & Rec, Phone: (604) 827-2764; Fax: (604) 822-6011",(Field Hours) M-F: 9am - 11pm; Sat: 8am - 8pm; Sun: 8am - 11pm,N,Athletics,Current,Services,,,,RACHELW,20210629234529,{A9B1FEF1-5E98-4355-BFA9-36326662851B},DE4,Sports,,Urban Facilities,-123.240605,49.255756
VPOI10192,,Frank Buck Field,Frank Buck,,,field,field,,,,,N,Athletics,Current,Services,,,,RACHELW,20210629234535,{DD3CC4A7-C039-4516-BCAE-39B78ACA854D},DE4,Sports,,Urban Facilities,-123.241188,49.2589
VPOI10312,,Brockhouse Park,Brockhouse Park,,,garden,park,,,,,N,UNA,Current,Civic,,,,RACHELW,20210629234540,{0A709BA6-8801-4ED6-B9E4-B7ADFEBC6573},DE5,Sports,,Urban Facilities,-123.237431,49.253715
VPOI10346,,Money and Raymond M.C. Lee Square,Lee Square,,,garden,plaza,,,,,N,UBC,Current,Civic,,,,RACHELW,20210629234542,{881A8FFB-76F9-4E4C-AAD1-C29FF5D92D46},,,,,-123.25049,49.265578
VPOI10348,,Davidson Arboretum,Davidson Arboretum,,,garden,garden,,,,,N,UBC,Current,Civic,,,,RACHELW,20210629234545,{C6D69A48-2826-4FD1-B333-52715EB9A691},,,,,-123.257123,49.265197
VPOI10062,VAD10210,Ponderosa Commons Residence Front Desk,Front Desk,,Ponderosa Commons,Front Desk,housing_student,,http://vancouver.housing.ubc.ca/residences/ponderosa-commons/,Phone: (604) 822-2708; Email: yearround@housing.ubc.ca,,N,SHHS,Current,Anchor,,,,RACHELW,20210621220617,{DA2E8B87-E876-4A3B-AB9E-18C8967F8B90},,,,Academic,-123.255454,49.26423
VPOI10160,VAD10439,St. John's College Front Desk,Front Desk,,St. John's College,,housing_student,,http://stjohns.ubc.ca/,Phone: (604) 822-8788; Email: sjc.reception@ubc.ca; Fax: (604) 822-8855,,N,SHHS,Current,Anchor,,,,RACHELW,20210621224955,{92334AA9-4DF0-4A59-A6D1-7285D75499D8},,,,Academic,-123.256231,49.262753
VPOI10258,VAD10415,Loafe Cafe,Loafe Cafe,,Alumni Centre,cafe,cafe,,http://loafecafe.com/,Phone: N/A; Email: info@loafecafe.com,M-F: 8am - 6pm; Sat: 11am - 4pm; Sun: Closed,N,Non-UBC,Current,Services,,,,RACHELW,20210622032029,{2A925A18-F368-44AC-8F58-36BC5C894991},CO4,Commercial,10-15,Legal Entities,-123.250156,49.265806
VPOI10040,VAD10474,Great Dane Coffee,,,Westpoint,cafe,cafe,,http://www.greatdanecoffee.com/,Phone: (604) 558-2190; Email: andrew@greatdanecoffee.com,M-F: 7:30am - 5pm; Sat/Sun: Closed,Y,Non-UBC,Current,Services,,,,RACHELW,20210622032029,{37DC4E18-4397-4631-9ED9-C81A9FBAD09D},CO4,Commercial,10-15,Legal Entities,-123.250735,49.270078
VPOI10429,VAD10216,Tim Hortons,,,Orca House,cafe,cafe,,http://www.food.ubc.ca,Phone: (604) 822-4221,M-F: 8am - 6pm; Sat: 11am - 4pm; Sun: Closed,N,SHHS,Current,Services,,RACHELW,20210430002613,RACHELW,20210622032031,{EA835DC3-5FD6-4858-B289-14C2C6000E5B},CO4,Commercial,10-15,Legal Entities,-123.249964,49.26871
VPOI10091,VAD11106,Food Court,Food Court,,Life Building,restaurant,restaurant,,,,,N,SHHS,Current,Services,,,,RACHELW,20210622032214,{EAFB3E66-E4B0-4F95-8BE9-21787EAF0C0A},CO2,Commercial,10-15,Legal Entities,-123.24976,49.267392
VPOI10324,VAD11098,Mercante,Mercante Pizza,,Ponderosa Commons,restaurant,restaurant,,http://www.food.ubc.ca/place/mercante/,Phone: (604) 827-2210,M-F: 8am - 9pm; Sat/Sun: 11am - 5pm,N,SHHS,Current,Services,,,,RACHELW,20210622032437,{6A6C754A-A733-403B-9322-1B483D7D7CD7},CO2,Commercial,10-15,Legal Entities,-123.255011,49.263683
VPOI10042,VAD10100,Bean Around The World,,,Old Barn Community Centre,cafe,cafe,,https://batwcoffee.com/pages/bean-around-the-world-ubc,Phone: (604) 568-8893,M-F: 7am - 7pm; Sat/Sun: 8am - 6pm,Y,Non-UBC,Current,Services,,,,RACHELW,20210622032459,{6B7C2FFD-5573-4A1B-A3AD-406A04374D91},CO4,Commercial,10-15,Legal Entities,-123.248048,49.258854
VPOI10093,VAD10841,Stir It Up,,,Buchanan Building,cafe,cafe,,http://www.food.ubc.ca/place/stir-it-up-cafe/,,,N,SHHS,Current,Services,,,,RACHELW,20210622032544,{F442B712-D1C2-4D47-895B-6A97936B865C},CO4,Commercial,5-10,Legal Entities,-123.254858,49.268511
VPOI10099,VAD10276,Tim Hortons,,,Forest Sciences Centre,cafe,cafe,,http://www.food.ubc.ca/place/tim-hortons/,Phone: (604) 822-1953,M-F: 7am - 6pm,N,SHHS,Current,Services,,,,RACHELW,20210622032556,{9B07E362-B46E-4B61-8109-1AD00322551E},CO4,Commercial,10-15,Legal Entities,-123.248458,49.260271
VPOI10114,VAD10559,Triple O's,,,David Lam,restaurant,restaurant,,http://www.food.ubc.ca/place/triple-o/,Phone: (604) 822-3256,M-F: 11am - 7pm; Sat/Sun: 11am - 5pm,N,SHHS,Current,Services,,,,RACHELW,20210622032607,{BE3ECA43-4EDE-4778-9352-29F8C6E57E94},CO3,Commercial,10-15,Legal Entities,-123.254398,49.265889
VPOI10115,VAD10014,Sauder Exchange Cafe,,,Henry Angus,cafe,cafe,,http://www.food.ubc.ca/place/sauder-exchange-cafe/,Phone: (604) 827-4783,M-F: 8am - 3pm; Sat/Sun: Closed,N,SHHS,Current,Services,,,,RACHELW,20210622032612,{AB3D4ADC-C55E-4DEC-A40C-884DC23D2CEF},CO4,Commercial,5-10,Legal Entities,-123.253728,49.265218
VPOI10116,VAD11030,Tim Hortons,,,David Lam,cafe,cafe,,http://www.food.ubc.ca/place/tim-hortons/,Phone: (604) 822-3256,M-F: 7am - 4pm; Sat/Sun: Closed ,N,SHHS,Current,Services,,,,RACHELW,20210622033847,{07E72BB9-B6E5-4E0F-9C3F-370BA5207856},CO4,Commercial,10-15,Legal Entities,-123.254283,49.26578
VPOI10250,VAD10821,The Point Grill,,,Marine Drive Residence,restaurant,restaurant,,http://www.food.ubc.ca/place/pointgrill/,Phone: (604) 822-9503,M-F: 11am - 8pm; Sat/Sun: 11am - 2pm,N,SHHS,Current,Services,,,,RACHELW,20210622033947,{0EBF457A-9705-47D1-976A-53C528BA0C34},CO2,Commercial,15-20,Legal Entities,-123.255379,49.26164
VPOI10025,VAD10490,Law Cafe,,,"Allard Hall, Second floor",,cafe,,http://www.food.ubc.ca/place/law-cafe/,Phone: (604) 827-1524,M-F: 7:30am - 7:30pm,N,SHHS,Current,Services,,,,RACHELW,20210622034002,{956F1C39-BFB2-4019-96BD-556649DAFA3E},CO4,Commercial,5-10,Legal Entities,-123.253654,49.269952
VPOI10179,VAD10839,Brock Commons Residence Front Desk,Front Desk,,Brock Commons - Tallwood House,,housing_student,,http://vancouver.housing.ubc.ca/residences/brock-commons/,Phone: (604) 822-1020; Email: yearround@housing.ubc.ca,,N,SHHS,Current,Anchor,,,,RACHELW,20210622154423,{60DE0EA6-8458-44E6-A215-BC8A7512DABF},,,,Academic,-123.251466,49.269541
VPOI10101,VAD11103,UBC Bookstore,,,Bookstore,,retail,http://www.infrastructuredevelopment.ubc.ca/rrs2/photos/081.jpg,http://www.bookstore.ubc.ca/home,Phone: 1 800 661-3889,M-F: 9.30am - 5.30pm; Sat: 11:00am - 5pm,N,UBC,Current,Retail,,,,RACHELW,20210622034032,{4C6A9126-866C-47AF-A09E-DCC2F7E2EDEE},CO14,Commercial,15-20,Legal Entities,-123.250582,49.265281
VPOI10039,VAD11103,Starbucks,Starbucks Bookstore,,UBC Bookstore,cafe,cafe,,http://www.food.ubc.ca/place/starbucks/,Phone: (604) 822-0552,M-F: 6:30am - 7:30am; Sat: 10:00am - 5pm; Sun: Closed,N,SHHS,Current,Services,,,,RACHELW,20210622034034,{EC2F8E91-E17E-4AA7-A6AC-F9450786C159},CO4,Commercial,10-15,Legal Entities,-123.25103,49.265105
VPOI10127,VAD10440,St. Mark's Parish,,,St. Mark's College,,worship,,http://www.stmarksparishvancouver.ca/,Phone: (604) 822-0261; Email: parish.smark@rcav.org,M-F: 12:10pm; Sunday: 9:30am,N,Non-UBC,Current,Civic,,,,RACHELW,20210630204325,{4015E668-912A-4127-9BC7-086291C4964E},CI1,Civic,0-5,Legal Entities,-123.248943,49.272161
VPOI10423,VAD11040,Pacific Museum of the Earth,Pacific Museum,,Earth and Ocean Sciences  - Main,attraction,attraction,http://www.infrastructuredevelopment.ubc.ca/rrs2/photos/402.jpg,http://www.eos.ubc.ca/resources/museum/,pme@eos.ubc.ca</br>Phone: (604) 822-6992 ,M-F: 9am - 5pm; Sat/Sun/Stat Holidays: Closed,N,UBC,Current,Civic,,,,RACHELW,20210630204800,{0B417750-07F3-441F-B405-A7A140C91348},CO12,Commercial,5-10,Legal Entities,-123.252256,49.262642
VPOI10255,VAD10561,Scotia Bank,,,David Strangway,,bank,,"http://www.scotiabank.com/ca/en/0,,2,00.html",Phone: (604) 225-2265,"Mon,Tues,Wed,Fri: 9:30am - 5pm; Thurs: 9:30am - 6pm; Sat: 9am - 4pm; Sun: Closed",Y,Non-UBC,Current,Services,,,,PLAN,20210616200717,{821C59C5-4E10-4AFD-8151-1320AF17896E},CO5,Commercial,15-20,Legal Entities,-123.246183,49.266044
VPOI10256,VAD10060,Freshii,,,Mews,,cafe,,https://www.freshii.com/ca/,Phone: (604) 343-4594; Email: 3351wesbrookmall@freshii.com,Tues-Fri: 9am - 8pm; Mon/Sat/Sun: Closed,Y,Non-UBC,Current,Services,,,,PLAN,20210616200717,{6A93F7A8-A89C-4E61-86D3-6D7DC3AA1296},CO4,Commercial,10-15,Legal Entities,-123.235364,49.254396
VPOI10257,VAD10077,Murchie's Tea and Coffee,,,Mews,,cafe,,http://www.murchies.com/store/,Phone: (604) 222-3355; Email: info@murchies.com,M-Sat: 10am - 6pm; Sun: 11am - 5pm,Y,Non-UBC,Current,Services,,,,PLAN,20210616200717,{685B1F91-AD2D-49F1-859C-BC1025364C82},CO4,Commercial,5-10,Legal Entities,-123.235727,49.254838
VPOI10259,VAD11023,Dentistry - Student Advising,,,J.B. Macdonald Building,,campus_services,,,,,N,UBC,Current,Civic,,,,PLAN,20210616200717,{7FAD56F0-E2BE-41E7-8A6C-46832B02EE8E},,,,Academic,-123.245451,49.265512
VPOI10235,VAD10071,BierCraft,,,The Mews,,restaurant,,http://biercraft.com/wesbrook-at-ubc/,Phone: (604) 559-2437,M-F: 11am - 12am,Y,Non-UBC,Current,Services,,,,PLAN,20210616200717,{A895F637-D865-4952-87C3-47AB57BB2283},CO2,Commercial,15-20,Legal Entities,-123.235488,49.25427
VPOI10236,VAD11030,Bento Sushi,,,David Lam Management Research Centre,,cafe,,http://www.food.ubc.ca/place/bento-sushi/,Phone: (604) 822-3256,M-F: 10am - 10pm; Sat & Sun: 10am - 5pm,N,SHHS,Current,Services,,,,PLAN,20210616200717,{1484FE75-8896-407E-93D8-91091644F682},CO2,Commercial,10-15,Legal Entities,-123.254283,49.26578
VPOI10237,VAD10014,"Business, Sauder School of",,,Henry Angus Building,,faculty/school,,http://www.sauder.ubc.ca/,Phone: (604) 822-8500; Fax: (604) 822-8468,M-F: 8:30am - 4:30pm,N,UBC,Current,Civic,,,,PLAN,20210616200717,{247F67DE-EC59-4A79-A662-78310CE1079D},,,,Academic,-123.253575,49.264917
VPOI10239,VAD10479,College of Health Disciplines,,,Woodward - IRC,,department,,,,,N,UBC,Current,Civic,,,,PLAN,20210616200717,{B6F7F5DE-8300-4E7E-8C44-16699FEF93D3},,,,Academic,-123.246926,49.264769
VPOI10243,VAD10210,"Social Work, School of",,,Jack Bell Building,,faculty/school,,http://socialwork.ubc.ca/,Phone: (604) 822-2255; Fax: (604) 822-8656,,N,UBC,Current,Civic,,,,PLAN,20210616200717,{FFA20459-9444-4D57-8C27-32CD5F2C6E3D},,,,Academic,-123.255098,49.264479
VPOI10244,VAD11089,Bao Down ,,,Central,,cafe,,https://baodown.net/,Email: info@baodown.net,,Y,Non-UBC,Current,Services,,,,PLAN,20210616200717,{BCCCC3AA-4C9C-4E54-9669-74B9DD738210},CO2,Commercial,10-15,Legal Entities,-123.247301,49.266235
VPOI10246,VAD10774,BC Liqour Store,,,Wesbrook Professional Centre,,retail,,http://www.bcliquorstores.com/store/locator/192,Phone: (604) 225-5220,"M, T: 10am - 7pm; W-Sat: 10am - 9pm; Sun: 11am - 6pm",Y,Non-UBC,Current,Retail,,,,PLAN,20210616200717,{C021D04A-A078-4DE2-BC3D-78D7E8E535DB},CO14,Commercial,10-15,Legal Entities,-123.236228,49.254529
VPOI10167,VAD11131,Purdy Pavilion,,,Purdy Pavilion,,medical,,http://www.vch.ca/Locations-Services/result?res_id=29,Phone: (604) 822-7121; Fax: (604) 822-7653,,N,VCH,Current,Civic,,,,PLAN,20210616200717,{251F6E7F-C622-48DD-B662-04B571D05C69},SD1,Health,,Urban Facilities,-123.245942,49.263265
VPOI10169,VAD10226,University Neighbourhoods Association,,,Granite Terrace Office,,campus_services,http://www.infrastructuredevelopment.ubc.ca/rrs2/photos/686.jpg,http://www.myuna.ca/,reception@myuna.ca</br>General Inquiries: (604) 827-5158,M-F: 8.30 am to 4.30pm,N,UNA,Current,Civic,,,,PLAN,20210616200717,{F5FD1EEF-7400-49CD-81FA-B4CD5FE716AD},CU1,Cultural,,Urban Facilities,-123.236159,49.255027
VPOI10173,VAD10073,Tapestry,,,Tapestry,,seniors,,http://www.discovertapestry.com/our-communities/tapestry-at-wesbrook-village/,Phone: (604) 225-5000,,Y,Non-UBC,Current,Civic,,,,PLAN,20210616200717,{84778721-5ECD-449E-A6C8-EADA9D90937C},BS3,Social welfare,,Urban Facilities,-123.235097,49.254766
VPOI10174,VAD10616,Safewalk,,,AMS Nest,,campus_services,,http://www.ams.ubc.ca/services/ams-safewalk,safewalk@ams.ubc.ca</br>(604) 822-5355,Regular: 8pm - 2am; Summer: 9pm - 2am,N,AMS,Current,Civic,,,,PLAN,20210616200717,{D2476BD4-E25A-441A-9D97-FA8E503372A0},BS4,Social welfare,,Urban Facilities,-123.249865,49.266446
VPOI10264,VAD10841,"Arts, Faculty of",,,Buchanan Building,,faculty/school,,https://www.arts.ubc.ca/,Phone: (604) 822-3828; Fax: (604) 822-6096; Email: arts.reception@ubc.ca,,N,UBC,Current,Civic,,,,PLAN,20210616200717,{FA93C9D1-B2DA-4AEC-ACE8-6BDB9635A866},,,,Academic,-123.254922,49.268351
VPOI10265,VAD10412,Caribou Child Care,Caribou,,University Services Building,,child_care,,http://www.childcare.ubc.ca/,Phone: (604) 822-5343; Email: childcare@housing.ubc.ca; Fax: (604) 822-9195,"Office Hours, M-F: 8:30am - 4:30pm",N,SHHS,Current,Civic,<p>Caribou Child Care Services Centre</p>,,,PLAN,20210616200717,{764326D4-29D0-4215-8C1B-146DED736740},BS6,Social welfare,,Urban Facilities,-123.253088,49.260778
VPOI10266,VAD10103,Hummingbird Child Care,Hummingbird ,,Orchard Commons,,child_care,,https://childcare.ubc.ca/,Phone: (604) 822-5343; Email: childcare@housing.ubc.ca; Fax: (604) 822-9195,,N,SHHS,Current,Civic,,,,PLAN,20210616200717,{8518C0BD-93B5-4795-A2A8-19B3163A5FDF},BS6,Social welfare,,Urban Facilities,-123.250562,49.260204
VPOI10269,VAD11030,Robert H. Lee Graduate School ,,,Henry Angus,,department,,http://www.sauder.ubc.ca/About/Place/Robert_H_Lee_Graduate_School,Phone: (604) 822-8500; Fax: (604) 822-8468,,N,UBC,Current,Civic,,,,PLAN,20210616200717,{5E32DEDB-E9FA-46F9-A358-8968F25EE9D6},,,,Academic,-123.254147,49.265619
VPOI10273,VAD10398,"Journalism, School of",,,Sing Tao Building,,faculty/school,,https://journalism.ubc.ca/,Phone: (604) 822-6688,M-F: 8am - 4pm,N,UBC,Current,Civic,,,,PLAN,20210616200717,{7979FAC0-8C03-4A3F-ADED-94340096B172},,,,Academic,-123.257773,49.267812
VPOI10274,VAD10282,"Community and Regional Planning, School of (SCARP)",,,Fredric Lasserre Building,,faculty/school,,https://scarp.ubc.ca/,Phone: (604) 822-3276,M-F: 8:30am - 4:30pm,N,UBC,Current,Civic,,,,PLAN,20210616200717,{49CA1B0C-C583-4F1C-B492-DACD1B222F4F},,,,Academic,-123.256062,49.267561
VPOI10275,VAD10184,"Education, Faculty of",,,Scarfe,,faculty/school,,https://educ.ubc.ca/,Phone: (604) 822-5242; Email: info.educ@ubc.ca,,N,UBC,Current,Civic,,,,PLAN,20210616200717,{6732E241-4A57-49F8-8EE1-DA9C227C1521},,,,Academic,-123.252554,49.26392
VPOI10276,VAD10180,"Music, School of",,,Music Building,,faculty/school,,https://music.ubc.ca/,Phone: (604) 822-3113; Fax: (604) 822-4884,,N,UBC,Current,Civic,,,,PLAN,20210616200717,{8AF4037E-AD63-4B7D-9125-DE465B908CA7},,,,Academic,-123.256712,49.267447
VPOI10277,VAD10022,Vancouver School of Economics,,,Iona Building,,faculty/school,,http://economics.ubc.ca/,Phone:(604) 822-2876; Fax:(604) 822-5915,M-F: 7:30am - 9pm; Sat/Sun: Closed,N,UBC,Current,Civic,,,,PLAN,20210616200717,{2F18B92B-C696-4CCD-94D7-6933D311C77A},,,,Academic,-123.250374,49.270995
VPOI10280,VAD10865,Nobel Biocare Oral Health Centre,Nobel Biocare,,David Strangway,,commercial_services,,http://www.dentistry.ubc.ca/the-nobel-biocare-oral-health-centre/,Phone: (604) 822-2112; Fax: (604) 822-3708,M-F: 8am - 12:30pm & 2pm - 5pm; Tues/Thurs: 6pm - 9pm; Sat: 9am - 12pm,N,UBC,Current,Services,,,,PLAN,20210616200717,{1721B4C3-3AB3-49D7-B257-567188D1179D},SD2,Health,,Urban Facilities,-123.245555,49.265894
VPOI10283,VAD10224,Thunderbird Arena,Arena,,Doug Mitchell Centre,,athletics,,https://thunderbirdarena.ubc.ca/,Phone: (604) 822-6121; Email: ice.rink@ubc.ca,M-F: 9am - 5pm,N,Athletics,Current,Services,,,,PLAN,20210616200717,{111EDCCD-E285-457C-B5F5-0557443583A8},DE3,Sports,,Urban Facilities,-123.241688,49.259933
VPOI10284,VAD10128,Tea House,Tea House,,Nitobe Garden,,garden,,,,,N,UBC,Current,Civic,,,,PLAN,20210616200717,{45F6BBB2-E357-44CB-9DA2-48CB70AED4D1},,,,,-123.259098,49.266185
VPOI10285,VAD10606,Save-On-Foods,,,Granite Terrace,,grocery,,http://www.saveonfoods.com/store/ubc,Phone: (604) 221-5999,Daily: 7am - 11pm,Y,Non-UBC,Current,Food,,,,PLAN,20210616200717,{734DB7FD-D45F-4DEE-83C6-D4E410AD73E8},CO9,Commercial,15-20,Legal Entities,-123.236554,49.254766
VPOI10287,VAD10103,UBC Vantage College,Vantage College,,Orchard Commons,,faculty/school,,https://vantagecollege.ubc.ca/,Phone: (604) 827-0337; Email: info@vantagecollege.ubc.ca,Daily: 9am - 4pm,N,UBC,Current,Civic,,,,PLAN,20210616200717,{C0D0B6B5-3BFE-4CC7-8026-4023DE7EE2E4},CI1,Civic,15-20,Legal Entities,-123.250932,49.260072
VPOI10288,VAD10715,Canada Goose Child Care,Canada Goose,CCS2,Child Care Services - Tillicum/Canada Goose,,child_care,,https://childcare.ubc.ca/,Phone: (604) 822-5343; Email: childcare@housing.ubc.ca; Fax: (604) 822-9195,"Office Hours, M-F: 8:30am - 4:30pm",N,SHHS,Current,Civic,,,,PLAN,20210616200717,{BFDCBB41-497B-4D5E-A476-59E6EA6D8B0D},BS6,Social welfare,,Urban Facilities,-123.234805,49.259585
VPOI10289,VAD10687,Acadia Child Care,Acadia,CCS3,Child Care Services - Acadia,,child_care,,https://childcare.ubc.ca/,Phone: (604) 822-5343; Email: childcare@housing.ubc.ca; Fax: (604) 822-9195,"Office Hours, M-F: 8:30am - 4:30pm",N,SHHS,Current,Civic,<p>Acadia Child Care Services Centre</p> ,,,PLAN,20210616200717,{EDCF1E78-D4EB-4569-A13D-1079AB27B292},BS6,Social welfare,,Urban Facilities,-123.234755,49.260817
VPOI10292,VAD10479,"Dentistry, Faculty of",,,Woodward - IRC,,faculty/school,,http://www.dentistry.ubc.ca/,Phone: (604) 822-7566; Email: http://www.dentistry.ubc.ca/contact-form/?dept=DMD,,N,UBC,Current,Civic,,,,PLAN,20210616200717,{49C2917F-3BE5-468A-84F8-C4B38A1E02F0},,,,Academic,-123.246729,49.264799
VPOI10293,VAD10490,"Law, Peter A. Allard School of",,,Allard Hall,,faculty/school,,http://www.allard.ubc.ca,Phone: (604) 822-3151; Fax: (604) 822-8108,M-F: 8:30am - 4:30pm,N,UBC,Current,Civic,,,,PLAN,20210616200717,{2562E568-1FBA-4208-96F7-3508709D2C5D},,,,Academic,-123.253515,49.269948
VPOI10295,VAD10282,"Architecture & Landscape Architecture, School of (SALA)",,,Fredric Lasserre Building,,faculty/school,,https://sala.ubc.ca/,Phone: (604) 827-7252,,N,UBC,Current,Civic,,,,PLAN,20210616200717,{8D4F6672-E7DE-4F5E-A9DF-187BCA220A21},,,,Academic,-123.255948,49.267604
VPOI10309,,Stone Garden,Stone Garden,,,garden,garden,,,,,N,UBC,Current,Civic,,RACHELW,20200730232855,PLAN,20210616200717,{5234A87F-AA90-4CC9-B00C-5F5DF3490F2A},,,,,-123.257651,49.266855
VPOI10310,,Dorothy Somerset Grove,Dorothy Somerset Grove,,,garden,garden,,,,,N,UBC,Current,Civic,,RACHELW,20200730232558,PLAN,20210616200717,{DB16D2B0-0D0A-448D-AD3A-B6BAA04E183C},,,,,-123.255791,49.269639
VPOI10315,VAD10364,Vanier's Dining Room,,,Place Vanier Residence,,restaurant,,http://www.food.ubc.ca/place/vaniers-dining-room/,Phone: (604) 822-2622,M-Thur: 7am - 8:15pm; Fri: 7am - 7:30pm; Sat/Sun: 8am - 7:30pm,N,SHHS,Current,Services,,,,PLAN,20210616200717,{464B9670-2461-45B5-BED6-E868EB14833E},CO2,Commercial,15-20,Legal Entities,-123.258773,49.264669
VPOI10323,VAD11040,Magma Cafe,,,Earth Sciences Building,,cafe,,http://www.food.ubc.ca/place/magma-cafe/,Phone: (604) 827-1525,M-F: 7:30am - 3pm,N,SHHS,Current,Services,,,,PLAN,20210616200717,{28CFEEC9-5E80-4E9D-92E2-57DCC128558F},CO4,Commercial,5-10,Legal Entities,-123.251836,49.262784
VPOI10331,VAD11070,Menchie's Frozen Yogurt,,,Tapestry,,cafe,,http://www.menchies.ca/,Phone: (604) 558-1622,M-Sun: 11:30am - 10pm,Y,Non-UBC,Current,Services,,,,PLAN,20210616200717,{0DB6D1A3-D546-4E43-984F-F8CD32FFE3FC},CO1,Commercial,10-15,Legal Entities,-123.234979,49.254372
VPOI10332,VAD11060,Jugo Juice,,,Tapestry,,cafe,,http://www.jugojuice.com/en/locations/british-columbia,Phone: (604) 221-6116,Daily: 9am - 7:30pm,Y,Non-UBC,Current,Services,,,,PLAN,20210616200717,{565F5726-46E2-4B5E-93E2-64F5C8A5CEF1},CO4,Commercial,10-15,Legal Entities,-123.235059,49.25447
VPOI10333,VAD10066,Dough Girls Baking,,,Mews,,cafe,,http://www.doughgirlsbakeshop.com/,Phone: (604) 333-5474,M-Sat: 8am - 6pm; Sun: 9am - 5pm,Y,Non-UBC,Current,Services,,,,PLAN,20210616200717,{93B9CDDD-AB94-4C16-999E-7D13776D5505},CO4,Commercial,5-10,Legal Entities,-123.235908,49.254567
VPOI10334,VAD10103,Open Kitchen,Open,,Orchard Commons,,restaurant,http://www.food.ubc.ca/wp-content/uploads/2016/07/Open-Kitchen-UBC.zip,http://www.food.ubc.ca/place/open-kitchen/,Phone: (604) 827-4450,M-F: 11am - 2pm; Sat/Sun: Closed,,SHHS,Current,Services,,,,PLAN,20210616200717,{1DC3480F-568F-43D2-8F28-B50443DC62B8},CO2,Commercial,10-15,Legal Entities,-123.251385,49.260585
VPOI10335,VAD10103,Hero Coffee + Market,Hero,,Orchard Commons,,cafe,,http://www.food.ubc.ca/place/hero/,Phone: (604) 827-2031,Needs Updating,,SHHS,Current,Services,,,,PLAN,20210616200717,{D70ACA9A-4F10-4DBF-BCBD-F8841095FBF4},CO4,Commercial,5-10,Legal Entities,-123.25127,49.260623
VPOI10336,VAD10781,Wesbrook Fitness Centre,,,Wesbrook Community Centre,,athletics,,https://wearecommunityvan.ca/sports-fitness/fitness-centre/,Phone: (604) 822-4227,M-Thurs: 6am - 10pm; Fri: 6am - 8:30pm; Sat/Sun: 8:30am - 7pm; Holidays: 12pm - ,N,UNA,Current,Services,,,,PLAN,20210616200717,{E8503EC0-D1F6-4781-998D-60832C733285},CO16,Commercial,5-10,Legal Entities,-123.237524,49.25416
VPOI10337,VAD10168,Ponderosa Commons Studio,,,Ponderosa Commons Arbutus House,,athletics,,http://www.recreation.ubc.ca/home-page/contact-us/contact-info-ponderosa-commons/,Phone: (604) 822-6000; Email: src.operations@ubc.ca ,http://www.recreation.ubc.ca/drop-in/,N,Athletics,Current,Services,,,,PLAN,20210616200717,{666F68FE-A5B2-4803-AAB1-C4C2B4D8CB86},CO16,Commercial,0-5,Legal Entities,-123.255682,49.263528
VPOI10338,VAD10032,Sage Bistro,,,Leon and Thea Koerner University Centre,,restaurant,,http://www.food.ubc.ca/place/sage/ ; https://sage.ubc.ca/,Phone: (604) 822-0968,M-F: 11:30am - 2:00pm; Sat and Sun: Closed,N,SHHS,Current,Services,,,,PLAN,20210616200717,{16665DDB-6EEB-492E-864D-DA424BCD2E77},CO2,Commercial,15-20,Legal Entities,-123.256925,49.268815
VPOI10342,VAD11138,Chef Hung Taiwanese Beef Noodle,,,Wesbrook Professional Centre,,restaurant,,https://www.chefhungnoodle.com/home.php,Phone: (604) 228-8765,Daily: 11am - 9pm,Y,Non-UBC,Current,Services,,,,PLAN,20210616200717,{1DD22006-037C-455F-8A0C-D12BABD28C11},CO2,Commercial,10-15,Legal Entities,-123.236285,49.254322
VPOI10343,VAD10845,Father David Bauer Arena,,,Doug Mitchell Centre,,athletics,,https://thunderbirdarena.ubc.ca/venue/father-david-bauer-arena/,Phone: (604) 822-6121,M-F: 9am - 5pm,N,Athletics,Current,Services,,,,PLAN,20210616200717,{D2C994AE-343D-4854-8817-EF85A2D32A55},DE3,Sports,,Urban Facilities,-123.241947,49.260412
VPOI10352,VAD11126,Corner Cafe,,,UBC Hospital - Koerner Pavilion,,cafe,,https://ubc.catertrax.com/,Phone: (604) 822-7534,M-F: 7am - 4:30pm,N,Non-UBC,Current,Services,,,,PLAN,20210616200717,{CB19BA5D-D4ED-4734-9ABB-10FEA548FED3},CO4,Commercial,10-15,Legal Entities,-123.246102,49.264648
VPOI10353,VAD10421,Kids Club Jr. Child Care,Kids Club Jr. ,,Sopron House,,child_care,,https://childcare.ubc.ca/,Phone: (604) 822-5343; Email: childcare@housing.ubc.ca; Fax: (604) 822-9195,,N,SHHS,Current,Civic,<p>Kids Club Jr. Child Care Services Centre</p>,,,PLAN,20210616200717,{1998222A-E16A-43F4-A4DA-2BDEC0A9B56D},BS6,Social welfare,,Urban Facilities,-123.235445,49.26215
VPOI10395,VAD10713,Sitka Child Care,Sitka,CCS3,Child Care Services,,child_care,,https://childcare.ubc.ca/,Phone: (604) 822-5343; Email: childcare@housing.ubc.ca; Fax: (604) 822-9195,"Office Hours, M-F: 8:30am - 4:30pm",N,SHHS,Current,Civic,,,,PLAN,20210616200717,{518C4F3A-B4CD-4C1C-AF5F-8E27CC3CE72B},BS6,Social welfare,,Urban Facilities,-123.234689,49.259686
VPOI10396,VAD10711,Little Goslings Child Care,Little Goslings,CCS4,Child Care Services,,child_care,,https://childcare.ubc.ca/,Phone: (604) 822-5343; Email: childcare@housing.ubc.ca; Fax: (604) 822-9195,"Office Hours, M-F: 8:30am - 4:30pm",N,SHHS,Current,Civic,,,,PLAN,20210616200717,{CA9FD3CD-A20C-4A77-B88A-2CAC34B35533},BS6,Social welfare,,Urban Facilities,-123.234202,49.259848
VPOI10397,VAD10715,Tillicum Child Care,Tillicum,CCS2,Child Care Services,,child_care,,https://childcare.ubc.ca/,Phone: (604) 822-5343; Email: childcare@housing.ubc.ca; Fax: (604) 822-9195,"Office Hours, M-F: 8:30am - 4:30pm",N,SHHS,Current,Civic,,,,PLAN,20210616200717,{8E216E3B-B5C4-4B41-BD71-870C2C95354A},BS6,Social welfare,,Urban Facilities,-123.235165,49.259522
VPOI10398,VAD10712,Pacific Spirit Child Care,Pacific Spirit,CCS5,Child Care Services,,child_care,,https://childcare.ubc.ca/,Phone: (604) 822-5343; Email: childcare@housing.ubc.ca; Fax: (604) 822-9195,"Office Hours, M-F: 8:30am - 4:30pm",N,SHHS,Current,Civic,,,,PLAN,20210616200717,{7F82F3B3-FAAE-4A9B-A52A-E22FAFF0A4CA},BS6,Social welfare,,Urban Facilities,-123.23389,49.26032
VPOI10399,VAD11101,Salal Child Care,Salal,CCS1,Child Care Services,,child_care,,https://childcare.ubc.ca/,Phone: (604) 822-5343; Email: childcare@housing.ubc.ca; Fax: (604) 822-9195,"Office Hours, M-F: 8:30am - 4:30pm",N,SHHS,Current,Civic,,,,PLAN,20210616200717,{A5DCDA10-E218-425D-BDC7-4098D1E6AFC9},BS6,Social welfare,,Urban Facilities,-123.235108,49.259929
VPOI10400,VAD10709,Pioggia Child Care,Pioggia,CCAB,Child Care Admin Building,,child_care,,https://childcare.ubc.ca/,Phone: (604) 822-5343; Email: childcare@housing.ubc.ca; Fax: (604) 822-9195,"Office Hours, M-F: 8:30am - 4:30pm",N,SHHS,Current,Civic,,,,PLAN,20210616200717,{7D52DF31-C57A-43C5-B5A8-E39A024C9BC4},BS6,Social welfare,,Urban Facilities,-123.23443,49.26094
VPOI10401,VAD11107,Auklet Child Care,Auklet,CCS2,Child Care Services - Sandpiper/Auklet,,child_care,,https://childcare.ubc.ca/,Phone: (604) 822-5343; Email: childcare@housing.ubc.ca; Fax: (604) 822-9195,"Office Hours, M-F: 8:30am - 4:30pm",N,SHHS,Current,Civic,,,,PLAN,20210616200717,{28BE5670-CFFA-4E9D-AEB4-72B104AA0A21},BS6,Social welfare,,Urban Facilities,-123.234753,49.260126
VPOI10402,VAD10816,Berwick Preschool,Berwick,,Berwick Child Development Centre,,child_care,,http://www.hr.ubc.ca/housing-relocation/family-care/,Phone: (604) 822-6616; Email: berwick@develop.bc.ca,,N,SHHS,Current,Civic,,,,PLAN,20210616200717,{C186C61F-C78D-4D18-A918-1A23B29DA06A},ED1,Education,,Urban Facilities,-123.239348,49.260495
VPOI10403,VAD10709,Barish Child Care,Barish,CCAB,Child Care Services Administration Building,,child_care,,https://childcare.ubc.ca/,Phone: (604) 822-5343; Email: childcare@housing.ubc.ca; Fax: (604) 822-9195,"Office Hours, M-F: 8:30am - 4:30pm",N,SHHS,Current,Civic,,,,PLAN,20210616200717,{661C3FD9-B949-494C-A890-0AF0C827DA77},BS6,Social welfare,,Urban Facilities,-123.234125,49.261004
VPOI10405,VAD10709,Chuva Child Care,Chuva,CCAB,Child Care Services Administration Building,,child_care,,https://childcare.ubc.ca/,Phone: (604) 822-5343; Email: childcare@housing.ubc.ca; Fax: (604) 822-9195,"Office Hours, M-F: 8:30am - 4:30pm",N,SHHS,Current,Civic,,,,PLAN,20210616200717,{EE378490-DDC3-4E28-8D34-82A5CB118CF3},BS6,Social welfare,,Urban Facilities,-123.234089,49.260752
VPOI10409,,St. Andrew's Quad,,,,,park,,,,,N,UNA,Current,Civic,,,,PLAN,20210616200717,{5BDBC9BF-E6B5-4BB5-BF31-BC1C87CC840E},DE5,Sports,,Urban Facilities,-123.251746,49.269956
VPOI10417,VAD11063,UBC Bus Exchange,Diesel Bus Loop,,UBC Exchange,Transit,transit,,,,,N,TransLink,Current,Civic,,,,PLAN,20210616200717,{A191FB2E-99A3-47D2-B6B8-5ED4692D2B7F},,,,,-123.247449,49.267443
VPOI10419,,Norma Rose Point School,,,Norma Rose Point School,,school,,http://go.vsb.bc.ca/schools/normarosepoint/Pages/Default.aspx,Phone: (604) 713-5950; Email: rosepoint@vsb.bc.ca; Fax: (604) 713-5932,M-F: 8:15am - 3:30pm,N,VSB,UEL,Civic,,,,PLAN,20210616200717,{BA7C8DD0-8DD5-4345-9F28-6933BAF41C1E},ED2,Education,,Urban Facilities,-123.232229,49.262027
VPOI10424,,Chinook,Chinook Child Care,,Norma Rose Point School,,child_care,,https://childcare.ubc.ca/,Phone: (604) 822-5343; Email: childcare@housing.ubc.ca; Fax: (604) 822-9195,,N,SHHS,UEL,Civic,,,,PLAN,20210616200717,{DB48F973-89CB-4518-ACCC-3C1F5DE39A76},BS6,Social welfare,,Urban Facilities,-123.23331,49.261847
VPOI10425,VAD10091,Nori,,,Central,,cafe,,https://www.facebook.com/pg/noriubc/about/?ref=page_internal,Needs Updating,M-F: 10am - 9pm; Sat: Closed; Sun: 11am - 5pm,UC,Non-UBC,Current,Services,,,,PLAN,20210616200717,{4DD512C1-7BC5-4F4B-A0C6-4BA81C0FCFE3},CO2,Commercial,10-15,Legal Entities,-123.247587,49.266199
VPOI10426,,Khorana Park,Khorana Park,,,garden,park,,http://wesbrook.app2.thoughtshop.com/posts/khorana-park#.VYm4W_m4S70,,,N,UNA,Current,Civic,,,,PLAN,20210616200717,{EDA25446-318E-4BDB-AFEB-5E123072CF70},DE5,Sports,,Urban Facilities,-123.232273,49.255353
VPOI10240,VAD10601,Thunderbird Residence Front Desk,Front Desk,,Thunderbird Residence,Front Desk,housing_student,,http://vancouver.housing.ubc.ca/residences/thunderbird/,Phone: (604) 822-1233; Email: yearround@housing.ubc.ca,,N,SHHS,Current,Anchor,,,,RACHELW,20210621220615,{F939A8C1-1478-47B0-B30F-234A66978EBE},,,,Academic,-123.249316,49.25944
VPOI10161,VAD10605,Marine Drive Residence Front Desk,Front Desk,,Marine Drive Residence,Front Desk,housing_student,,http://vancouver.housing.ubc.ca/residences/marine-drive-residence/,Phone: (604) 827-3242; Email: information.housing@ubc.ca,,N,SHHS,Current,Anchor,,,,RACHELW,20210621220615,{1572F017-1552-4A4B-854E-87CD9017579A},,,,Academic,-123.256759,49.261441
VPOI10171,VAD10617,Acadia Park Residence Front Desk,Front Desk,,Acadia Community Centre,Front Desk,housing_student,,http://vancouver.housing.ubc.ca/residences/acadia-park/,Phone: (604) 822-3172; Email: family@housing.ubc.ca,,N,SHHS,Current,Anchor,,,,RACHELW,20210621220614,{713EE463-FDA7-4B63-9B1F-EF5630BB93EF},,,,Academic,-123.237335,49.262587
VPOI10294,VAD11095,Totem Park Residence Front Desk,Front Desk,,Totem Park Residence,Front Desk,housing_student,,http://vancouver.housing.ubc.ca/residences/totem-park/,Phone: (604) 822-3304; Email: information@housing.ubc.ca,,N,SHHS,Current,Anchor,,,,RACHELW,20210621220612,{1D24987D-9B27-4382-AB14-A84C6705F909},,,,Academic,-123.253011,49.25803
VPOI10376,VAD10863,Huckleberry Child Care,Huckleberry,,Spirit Park Apartments,,child_care,,https://childcare.ubc.ca/,Phone: (604) 822-5343; Email: childcare@housing.ubc.ca; Fax: (604) 822-9195,,N,SHHS,Current,Civic,<p>Huckleberry Child Care Services Centre</p>,,,PLAN,20210616200717,{677C406F-699C-411A-A2A4-8DEFE3C20767},BS6,Social welfare,,Urban Facilities,-123.239447,49.261151
VPOI10378,VAD10711,Coho Child Care,Coho,CCS4,Child Care Services,,child_care,,https://childcare.ubc.ca/,Phone: (604) 822-5343; Email: childcare@housing.ubc.ca; Fax: (604) 822-9195,"Office Hours, M-F: 8:30am - 4:30pm",N,SHHS,Current,Civic,,,,PLAN,20210616200717,{49C73AC8-0185-438B-9EA7-9B2C2A477C12},BS6,Social welfare,,Urban Facilities,-123.233922,49.259908
VPOI10386,VAD11122,UBC Botanical Garden and Centre for Plant Research,Botanical Garden,,Botanical Garden,,garden,http://www.infrastructuredevelopment.ubc.ca/rrs2/photos/097.jpg,http://www.botanicalgarden.ubc.ca/centre-for-plant-research,Phone: (604) 822-4208; Email: garden.info@ubc.ca,Daily: 9:30am - 4:30pm; Summer Hours: Same as Daily but Thurs: 9:30am - 8pm,N,UBC,Current,Civic,,,,PLAN,20210616200717,{6D5DC6B4-72E6-431E-A3EC-D46B8079B053},,,,,-123.249738,49.253233
VPOI10388,VAD10713,Discovery Child Care,Discovery,CCS3,Child Care Services,,child_care,,https://childcare.ubc.ca/,Phone: (604) 822-5343; Email: childcare@housing.ubc.ca; Fax: (604) 822-9195,"Office Hours, M-F: 8:30am - 4:30pm",N,SHHS,Current,Civic,,,,PLAN,20210616200717,{A1D67F9A-6A5A-43E8-B1AD-7ED1C20350C3},BS6,Social welfare,,Urban Facilities,-123.234335,49.25975
VPOI10271,VAD10831,UBC Carding Office,,,UBC Bookstore,,campus_services,,http://ubccard.ubc.ca/,Phone: (604) 827-5900; Email: ubc.card@ubc.ca,"Mon,Tues,Thurs,Fri: 9:30am - 5:30pm; Wed: 9:30am - 7pm; Sat: 11am - 5pm",N,UBC,Current,Civic,,,,RACHELW,20210707194130,{63DB81B7-07BB-4013-A878-DC1B58BF0A43},,,,Academic,-123.250497,49.265269
VPOI10241,VAD10612,Fairiew Crescent Residence Front Desk,,,Fairview Crescent Residence,Front Desk,housing_student,,http://vancouver.housing.ubc.ca/residences/fairview-crescent/,Phone: (604) 822-3172; Email: information@housing.ubc.ca,,N,SHHS,Current,Anchor,,,,RACHELW,20210708212056,{4A532C3E-30EB-48CE-84A0-7243202CE043},,,,Academic,-123.239711,49.263411
VPOI10270,VAD10831,UBC Parking Services,,,Bookstore,,campus_services,,https://parking.ubc.ca/,Phone: (604) 822-6786; Email: parking.support@ubc.ca; Fax: (604) 827-2509,M-F: 9:30am - 5:30pm,N,Parking,Current,Civic,,,,RACHELW,20210707194138,{5B01C090-F5F0-4199-9FB1-6C81077A13EB},,,,Academic,-123.250699,49.264878
VPOI10001,VAD10127,Green College Front Desk,,,Green College,Front Desk,housing_student,,http://www.greencollege.ubc.ca/,Phone: (604) 822-8660; Email: gc.reception@ubc.ca; Fax: (604) 822-8742,M-F: 9am - 12pm & 1pm - 4pm,N,SHHS,Current,Anchor,,,,RACHELW,20210708211219,{8059EC2C-EE73-4478-8CF1-02458425F86E},,,,Academic,-123.256407,49.270922
VPOI10301,VAD10616,AMS Sexual Assault Support Center,,SASC,AMS Nest,,campus_services,,https://www.ams.ubc.ca/student-services/sasc/,Phone: (604) 827-5180; Email: sasc@ams.ubc.ca,Daily: 8am - 10pm,,,Current,Civic,,GISSTUD1,20180116231607,RACHELW,20210707194143,{8C9D8A5A-1D63-4EE0-AFA6-00A0FBF37782},BS4,Social welfare,,Urban Facilities,-123.249865,49.266446
VPOI10303,VAD10100,Old Barn Community Centre,,,Old Barn Community Centre,,campus_services,,https://www.myuna.ca/recreation/,Phone: (604) 827-4469,M-F: 7am - 9:30pm; Sat-Sun: 8:30am - 10pm,,,Current,Civic,,GISSTUD1,20180117190927,RACHELW,20210707194147,{0048CC7B-47BE-454A-B3A2-C48A0D88F8BF},CU1,Cultural,,Urban Facilities,-123.248329,49.258927
VPOI10304,VAD10781,Wesbrook Community Centre,,,Wesbrook Community Centre,,campus_services,,https://www.myuna.ca/,Phone: (604) 822-4227,M-Th: 8:30am - 10pm; Fri: 8:30am - 8:30pm; Sat-Sun: 8:30am - 6pm,,,Current,Civic,,GISSTUD1,20180117190927,RACHELW,20210707194148,{CEBB606B-A92E-4A88-A5D6-8A97A662779E},CU1,Cultural,,Urban Facilities,-123.237509,49.25402
VPOI10305,VAD10491,BC Ambulance Service Station 262,BC Ambulance Service,,Ambulance Station,,campus_services,,,,Open 24 Hours,,,Current,Civic,,GISSTUD1,20180117190927,RACHELW,20210707194150,{AD5ADFBE-1BBB-4FCD-81CB-CF4AA2C84F2B},CI4,Civic,10-15,Legal Entities,-123.243553,49.263274
VPOI10318,VAD11128,UBC Studios,,,University Services Building,,campus_services,,http://ubcstudios.ubc.ca/,Phone: (604) 822-9800; Email: ubc.studios@ubc.ca,,,,Current,Civic,,GISSTUD1,20180122234414,RACHELW,20210707194151,{E7912E83-D2FD-4B19-9236-B1A4241BE7FD},,,,Urban Facilities,-123.253665,49.260605
VPOI10340,VAD10377,Ceremonies and Events ,UBC Ceremonies & Events,,Ponderosa Office Annex B,,campus_services,,http://ceremonies.ubc.ca/,Phone: (604) 822-2484; Email: ceremonies.office@ubc.ca; Fax: (604) 822-9060,,N,UBC,Current,Civic,,,,RACHELW,20210707194153,{288B7223-CA3D-410E-B19A-EB6908B396CB},,,,Academic,-123.255945,49.264806
VPOI10431,VAD11148,West Coast Suites,Check-in,,Walter Gage Residence,,campus_services,,http://suitesatubc.com/accommodations/west-coast-suites/,Phone: (604) 395-2540; Email: reservations@housing.ubc.ca; Fax: (604) 822-1001,,N,SHHS,Current,Civic,,,,RACHELW,20210707194154,{2EF1F6BB-FA3D-49F6-B0C3-37469D695881},CO11,Commercial,10-15,Legal Entities,-123.248557,49.269554
VPOI10375,VAD10605,Student Housing and Community Services,SHCS Office,,Marine Drive Residence,service,campus_services,,http://vancouver.housing.ubc.ca/,Phone: (604) 822-2812; Email: yearround@housing.ubc.ca; Fax: (604) 822-6935,M-F: 8:15am - 5pm ,N,SHHS,Current,Civic,,,,RACHELW,20210707194156,{5E7237EC-FA1F-469B-BDE8-EE5BEC28DFA6},,,,Academic,-123.255587,49.261171
VPOI10059,VAD11031,Family Practice Teaching Unit/Clinic,,,David Strangway,,campus_services,,http://clinic.familymed.ubc.ca/,Phone: (604) 822-5431; Email: family.clinic@familymed.ubc.ca; Fax: (604) 822-4089,M-F: 9am - 5pm,Y,Non-UBC,Current,Civic,,,,RACHELW,20210707194204,{A122A0A9-0F78-48D6-ADDF-CE2B4138962A},SD2,Health,,Urban Facilities,-123.246341,49.265908
VPOI10028,VAD11126,Student Health Services,,,UBC Hospital - Koerner Pavilion,,campus_services,,https://students.ubc.ca/health-wellness/student-health-service,Phone: (604) 822-7011; Email: student.health@ubc.ca; Fax: 1 855 822-7212,"Mon, Tues, Wed, Fri: 8am - 4pm; Thurs: 9am - 4pm; Sat/Sun: Closed",N,UBC,Current,Civic,,,,RACHELW,20210707194209,{1CC900B4-A8A5-4D7B-BA97-4D7C24CE04FA},SD1,Health,,Urban Facilities,-123.245718,49.263984
VPOI10158,VAD10616,CiTR 101.9 FM,,,"AMS Nest, Level 2",,campus_services,,http://www.citr.ca/,Phone: (604) 822-8648,,N,AMS,Current,Civic,,,,RACHELW,20210707194210,{6A8CF0A9-1991-404C-B0E0-0F44441C1A4D},,,,Academic,-123.249524,49.266415
VPOI10159,VAD10479,The Media Group ,,,Woodward - IRC,,campus_services,,,,,N,UBC,Current,Civic,,,,RACHELW,20210707194210,{21E1D55A-DBF1-46B9-BFAD-3589DDB46A01},,,,Academic,-123.246666,49.26487
VPOI10165,VAD10021,Go Global International Learning Programs,,,International House,,campus_services,,https://students.ubc.ca/about-student-services/go-global,Phone: (604) 822-0942; Email: go.global@ubc.ca; Fax: (604) 822-9885,M-F: 9am - 4:15pm; Sat/Sun: Closed,N,UBC,Current,Civic,,,,RACHELW,20210707194211,{832D4D0D-026F-4716-9CA0-C9B7786BE113},,,,Academic,-123.258968,49.267803
VPOI10080,VAD10226,Village Gate Homes (Rental Housing) ,,,Granite Terrace Office,,campus_services,,https://www.villagegatehomes.com/,Phone: (778) 945-5100; Email: info@villagegatehomes.com,,N,UBCPT,Current,Civic,,,,RACHELW,20210707194211,{2BB9C532-7AEB-4508-98D0-BF994EACE365},,,,,-123.236051,49.255071
VPOI10109,VAD10825,Campus and Community Planning,,,Campus and Community Planning,,campus_services,,https://planning.ubc.ca/vancouver,Phone: (604) 822-8228; Email: info.planning@ubc.ca; Fax: (604) 822-6119,M-F: 8:30am - 4:30pm,N,UBC,Current,Civic,,,,RACHELW,20210707194212,{D26D0458-6076-4871-BCB9-2FC5344562B4},,,,Academic,-123.253195,49.26237
VPOI10112,VAD10831,Building Access (Key Desk),,,UBC Bookstore,,campus_services,,https://parking.ubc.ca/building-access-0,Phone: (604) 822-6786; Fax: (604) 827-2509; Email: parking.support@ubc.ca,M-F: 9:30am-5:30pm (Wed until 7pm); Sat: 11am-5pm; 3rd Thurs/month: 11am-5:30pm,N,UBC,Current,Civic,,,,RACHELW,20210707194213,{7C2024FF-4109-4C88-A844-3E6C1789886A},,,,Academic,-123.250621,49.265047
VPOI10120,VAD10840,Career Services,,,Brock Hall,,campus_services,,https://students.ubc.ca/about-student-services/centre-student-involvement-careers,Phone: (604) 822-4011,M-Th: 9am-5:30pm; Fri: 9am-5pm,N,UBC,Current,Civic,,,,RACHELW,20210707194215,{381A2C2C-D5E4-4315-A622-0A7AA5F31DD2},,,,Academic,-123.252197,49.268632
VPOI10245,VAD10840,"Awards, Fees and Financial Assistance ",,,Brock Hall,,campus_services,,https://students.ubc.ca/enrolment/finances,Phone: (604) 822-9836; Toll-free: 1-877-272-1422,"M, W-F: 9:30am - 4:00pm; Tue: 10:00am - 4:00pm",N,UBC,Current,Civic,,,,RACHELW,20210707194221,{2A34701C-9469-461B-A542-CBC07CE28C49},,,,Academic,-123.252197,49.268632
VPOI10170,VAD11033,Allan McGavin Sports Medicine Centre,,,Djavad Mowafaghian Centre for Brain Health,,campus_services,,http://sportsmedicine.med.ubc.ca/,Phone: (604) 822-3614; Email: amsmcinfo@gmail.com; Fax: (604) 822-9058,,Y,Non-UBC,Current,Civic,,,,RACHELW,20210707194223,{FC0E38F8-65E6-4B3B-88BF-F8EC6F29DB11},SD2,Health,,Urban Facilities,-123.244421,49.264501
VPOI10178,VAD10840,Admissions (Undergraduate) ,,,Brock Hall,,campus_services,,http://you.ubc.ca/applying-ubc/,Phone: (604) 822-8999; Fax: (604) 822-9888,M-F: 9:00am - 4pm; Sat: 9:30am - 2:30pm; Sun: Closed,N,UBC,Current,Civic,,,,RACHELW,20210707194226,{FFAF09AC-4820-46BC-9CE1-49ED035AB379},,,,Academic,-123.252197,49.268632
VPOI10379,VAD10033,PCS Technologies,"PCS Biofuels, Eve Research, PCI Combustion Tech",,3800 Wesbrook Mall,,commercial_services,,,,,,,Current,Services,,GISSTUD1,20180713172251,RACHELW,20210707194255,{101606F9-20B8-4A1A-81AC-C077EB7DABA1},CO17,Commercial,,Legal Entities,-123.230763,49.250294
VPOI10374,VAD10033,ETC 3 Technology Centre,Emerging Technologies Centre,,3800 Wesbrook Mall,,commercial_services,,,,,,,Current,Services,,GISSTUD1,20180713171359,RACHELW,20210707194256,{2CD07E4E-9548-4465-B479-91C8FFCD1FA0},CO17,Commercial,,Legal Entities,-123.231059,49.250022
VPOI10372,VAD11034,Contextual Genomics Inc.,,,Donald Rix,,commercial_services,,,,,,,Current,Services,,GISSTUD1,20180712230205,RACHELW,20210707194259,{80984EF6-4698-40E0-BCD9-5C37ECC7BFAF},CO17,Commercial,,Legal Entities,-123.246373,49.262142
VPOI10373,VAD11034,Convergent Manufacturing Technologies,,,Donald Rix,,commercial_services,,,,,,,Current,Services,,GISSTUD1,20180719232313,RACHELW,20210707194300,{4FEC893A-4ACB-4CB8-B54E-994F48A9AC24},CO17,Commercial,,Legal Entities,-123.246461,49.262032
VPOI10381,VAD11034,Renaissance Bioscience Corp,,,Donald Rix,,commercial_services,,,,,,,Current,Services,,GISSTUD1,20180712205555,RACHELW,20210707194300,{C765E805-B039-4037-9C73-1550BBC505F9},CO17,Commercial,,Legal Entities,-123.246287,49.261948
VPOI10382,VAD10181,S2G Biochemicals Inc,,,NRC Institute for Fuel Cell Innovation,,commercial_services,,,Phone: (604) 221-8670,M-F: 8am - 4pm,,,Current,Services,,GISSTUD1,20180712225738,RACHELW,20210707194301,{1825AC6D-AFBE-4AA6-80EF-D17CF174F42B},CO17,Commercial,,Legal Entities,-123.232476,49.245269
VPOI10384,VAD10033,Canadian Kailuan Dehua Mines Co. Ltd.,,,3800 Wesbrook Mall,,commercial_services,,https://ckdmines.com/,Phone: (604) 697-9212; Fax: (604) 633-0342; Email: info@ckdmines.com,,,,Current,Services,,GISSTUD1,20180713172055,RACHELW,20210707194302,{10920F70-DEC5-41E5-A57D-3A58C136ED16},CO15,Commercial,,Legal Entities,-123.230914,49.250051
VPOI10069,VAD10455,Birdcoop Fitness Center,,,Student Recreation Centre,,athletics,http://www.infrastructuredevelopment.ubc.ca/rrs2/photos/774.jpg,http://www.recreation.ubc.ca/fitness/,Phone: (604) 822-6924; Email: birdcoop.fitnesscentre@ubc.ca,(Sep 1-Apr 30) M-Th: 6:30am10pm; Fri: 6:30am-9pm; Sat: 10am-8pm; Sun: 10am-7pm,N,Athletics,Current,Services,,,,RACHELW,20210707194309,{AE79F04A-4306-4184-AB3E-4FC56E019209},CO16,Commercial,10-15,Legal Entities,-123.248788,49.268359
VPOI10438,,Wesbrook Village,Wesbrook Village,,,attraction,commercial_services,,,,,,,Current,Services,,RACHELW,20210621212701,RACHELW,20210707194322,{EEE89095-5CE6-4BBA-B25B-AD960A8B8CE1},,,,,-123.235525,49.254099
VPOI10134,VAD10382,English Language Institute (ELI),,,Continuing Studies Building,,department,,https://eli.ubc.ca/,Phone: (604) 822-1555; Email: https://eli.ubc.ca/contact-us; Fax: (604) 822-1579,M-F: 8:30am - 4:30pm; Sat/Sun: Closed,N,UBC,Current,Civic,,,,RACHELW,20210707194327,{59DE3047-7E99-462C-BB4D-70B4274319C0},CI1,Civic,10-15,Legal Entities,-123.254954,49.263365
VPOI10268,VAD10281,Engineering,,,Fred Kaiser,,department,,https://engineering.ubc.ca/,,,N,UBC,Current,Civic,,,,RACHELW,20210707194329,{9BF73A4C-37EE-4808-B8F4-9E37B83F93A7},,,,Academic,-123.250147,49.262465
VPOI10291,VAD10276,"Forestry, Faculty of",,,Forestry,,faculty/school,,http://www.forestry.ubc.ca/,Phone: (604) 822-2727; Email: for.recep@ubc.ca; Fax: (604) 822-8645,,N,UBC,Current,Civic,,,,RACHELW,20210707194333,{7B827E0B-22C8-4706-A85A-E5D74BFBA108},,,,Academic,-123.248814,49.260474
VPOI10440,VAD10450,Saltwater/kaka,Saltwater/kaka,,Saltwater/kaka,,housing_student,,http://vancouver.housing.ubc.ca/residences/place-vanier/,,,N,SHHS,Current,,,RACHELW,20210705164603,TONYZ,20211015180941,{E3D182CD-9FC4-48B8-9F6C-DF23AEE5E62A},,,,Academic,-123.249022,49.269046
VPOI10184,,Iona Green,Iona Green,,,garden,garden,,,,,N,UNA,Current,Civic,,,,RACHELW,20210712214414,{88DCAE80-22F4-4F53-B1FA-0BB94C065235},DE5,Sports,,Urban Facilities,-123.250201,49.270668
VPOI10433,VAD10450,Exchange Front Desk,Front Desk,,Exchange Residence ,Front Desk,housing_student,,http://vancouver.housing.ubc.ca/residences/exchange/,,,N,SHHS,Current,Anchor,,RACHELW,20210906050057,RACHELW,20210906050252,{D7C8B7F4-7D94-403B-89A8-FFA44B0B2F2C},,,,Academic,-123.248488,49.268847
VPOI10383,VAD11126,UBC Hospital,UBC Hospital,,Koerner Pavilion,,hospital,http://www.infrastructuredevelopment.ubc.ca/rrs2/photos/463.jpg,http://www.vch.ca/Locations-Services/result?res_id=652,Phone: (604) 822-7121; Fax: (604) 822-7653,Daily: 8am - 10pm,N,VCH,Current,Civic,,,,TONYZ,20210709015732,{4B659824-014D-44C4-9060-4A02C361FCE5},SD1,Health,,Urban Facilities,-123.245771,49.264197
VPOI10437,VAD11122,Greenheart TreeWalk,Greenheart TreeWalk,,Botanical Garden,attraction,park,http://www.infrastructuredevelopment.ubc.ca/rrs2/photos/099.jpg,http://www.botanicalgarden.ubc.ca/canopy-walkway,Phone: (604) 822-4208; Email: info@greenheart.ca,Daily: 10am - 4pm,N,UBC,Current,Civic,,RACHELW,20210621215252,RACHELW,20210727034716,{75CD165A-BEE4-4A80-8552-755A69B9DC24},,,,,-123.245381,49.25013
VPOI10442,VAD11180,Brock Cafe,,,Brock Commons,,cafe,,,Phone: (604) 827-1524,<Null>,N,SHHS,Current,Services,,RACHELW,20210727034403,RACHELW,20210727034805,{D018ADD3-6E1E-45D1-BE53-D6372B91ED12},CO4,Commercial,5-10,Legal Entities,-123.252766,49.268929
VPOI10242,VAD10230,"Land and Food Systems, Faculty of",,,MacMillan Building,,faculty/school,,http://www.landfood.ubc.ca/,Phone: (604) 822-1219; Email: lfs.dean@ubc.ca,,N,UBC,Current,Civic,,,,RACHELW,20210707194337,{66970B61-FBF2-4E68-8649-A78A70791729},,,,Academic,-123.251016,49.260978
VPOI10238,VAD11031,Continuing Studies,,,David Strangway,,faculty/school,,https://cstudies.ubc.ca/,Phone: (604) 822-1444; Email: https://cstudies.ubc.ca/contact-usFax: (604) 822-0388,M-F: 8:30am - 4:30pm,Y,Non-UBC,Current,Civic,,,,RACHELW,20210707194338,{9B911B6B-F484-4994-8C04-46313614279D},,,,Academic,-123.246246,49.265919
VPOI10162,VAD10106,"Pharmaceutical Sciences, Faculty of",,,Pharmaceutical Sciences Building,,faculty/school,,https://pharmsci.ubc.ca/,Phone: (604) 827-2673; Fax: (604) 822-3035,M-F: 8am - 6pm,N,UBC,Current,Civic,,,,RACHELW,20210707194342,{45FF362C-B3F7-43C7-8A6E-16B8AF51059D},,,,Academic,-123.242775,49.262584
VPOI10111,VAD10281,"Applied Science, Faculty of",,,Fred Kaiser Building,,faculty/school,,https://apsc.ubc.ca/,Phone: (604) 822-6413; Email: info@apsc.ubc.ca,,N,UBC,Current,Civic,,,,RACHELW,20210707194343,{E68CC851-FC4B-4396-B49B-E391952B0C94},,,,Academic,-123.250076,49.262344
VPOI10188,,Community Field,Community,,,field,field,,,,,N,UNA,Current,Services,,,,RACHELW,20210707194354,{E0CDABAC-844D-4FAB-8DEB-F3E438D15EC6},DE4,Sports,,Urban Facilities,-123.239032,49.253287
VPOI10202,,David Sidoo Field,David Sidoo,,,field,field,,,,,N,Athletics,Current,Services,,,,RACHELW,20210707194356,{D7E3E574-037B-4358-B45F-450575DE7822},DE4,Sports,,Urban Facilities,-123.24545,49.254495
VPOI10166,,Totem Park,Totem Park,,,garden-l,garden,,https://vancouver.housing.ubc.ca/residences/totem-park/,Phone: (604) 822-3304; Email: information@housing.ubc.ca,,N,UBC,Current,Civic,,,,RACHELW,20210707194437,{772CAD8C-C162-4886-B566-AD4C8CC97465},,,,Academic,-123.254059,49.259503
VPOI10351,,Patient Park,Patient Park,,,garden,garden,,,,,N,UBC,Current,Civic,,,,RACHELW,20210707194439,{AFDA64A1-307D-49A6-80E1-04248C52CBD4},DE5,Sports,,Urban Facilities,-123.246876,49.263741
VPOI10404,VAD11122,UBC Botanical Garden,,,Botanical Garden,,garden,,http://botanicalgarden.ubc.ca/,Phone: (604) 822-4208; Email: garden.info@ubc.ca,Daily: 9:30am - 4:30pm; Summer Hours: Same as Daily but Thurs: 9:30am - 8pm,N,UBC,Current,Civic,,,,RACHELW,20210707194440,{FE26811A-A1C4-44CF-A8DD-3A0BFF8BA653},CO12,Commercial,10-15,Legal Entities,-123.248007,49.253611
VPOI10364,,Macinnes Field,Macinnes Field,,,garden,field,,,,,N,UBC,Current,Services,,RACHELW,20200724165032,RACHELW,20210707194458,{7306859F-3927-4A6A-8F15-5C9B6FA8DA07},,,,,-123.248719,49.266811
VPOI10286,VAD11125,Research Ponds,,,UBC Research Ponds,,garden,,,,,N,UBC,Current,Civic,,,,RACHELW,20210707194509,{B8209770-DBE7-4768-BA3B-0E50879E9CC3},,,,,-123.232955,49.247599
VPOI10414,,Yosef Wosk Reflecting Pool,Yosef Wosk Reflecting Pool,,,garden,garden,,,,,N,UBC,Current,Civic,,,,RACHELW,20210707194510,{15860B58-C4AF-4C81-89A7-264AB0244EBF},DE5,Sports,,Urban Facilities,-123.260293,49.269865
VPOI10345,,Sauder Family Garden,,,,,garden,,,,,N,UBC,Current,Civic,,,,RACHELW,20210707194512,{28361191-DFD7-43C4-8BE7-08295BAD0B4B},DE5,Sports,,Urban Facilities,-123.244986,49.264417
VPOI10347,,The Knoll,The Knoll,,,garden,garden,,,,,N,UBC,Current,Civic,,,,RACHELW,20210707194514,{5C6D6889-7043-470B-B227-C9AB4F77EAC7},DE5,Sports,,Urban Facilities,-123.25035,49.266481
VPOI10349,,Library Garden,Library Garden,,,garden-l,garden,,,,,N,UBC,Current,Civic,,,,RACHELW,20210707194516,{0CB0F064-4CA4-4516-85B8-4EAFEA6B4434},DE5,Sports,,Urban Facilities,-123.253683,49.267191
VPOI10003,,Totem Field,Totem Field,,,garden-l,garden,,,,,N,UBC,Current,Civic,,,,RACHELW,20210707194517,{8E001D8B-646E-4C2B-BBD4-128D952626A4},DE4,Sports,,Urban Facilities,-123.250139,49.256538
VPOI10322,VAD10364,Place Vanier Residence Front Desk,Front Desk,,Place Vanier Residence  ,Front Desk,housing_student,,http://vancouver.housing.ubc.ca/residences/place-vanier/,,,N,SHHS,Current,Anchor,,,,RACHELW,20210707194526,{6BBF59D3-7831-449A-ACB4-4A59CBFD43AE},,,,Academic,-123.258395,49.264747
VPOI10432,VAD10613,Gage Residence Front Desk,Front Desk,,Walter Gage Residence  ,Front Desk,housing_student,,http://vancouver.housing.ubc.ca/residences/place-vanier/,,,N,SHHS,Current,Anchor,,RACHELW,20210430001849,RACHELW,20210707194527,{81AB35BB-8403-44F6-8C16-0887FD28DF92},,,,Academic,-123.249617,49.269436
VPOI10002,VAD10103,Orchard Commons Residence Front Desk,Front Desk,,Orchard Commons,Front Desk,housing_student,,http://vancouver.housing.ubc.ca/residences/orchard-commons/,Email: information@housing.ubc.ca,,N,SHHS,Current,Anchor,,,,RACHELW,20210707194529,{DEEA5DB0-266B-40C2-BDCA-AFBCB2484959},,,,Academic,-123.250932,49.260072
VPOI10369,VAD10486,University Village Medical and Dental Clinic,,,Yu,,medical,,http://www.universityvillageclinic.com/,Phone: (604) 222-2273,M-F: 8am - 4 pm; Sat: 9am - 3pm,,,Current,Civic,,GISSTUD1,20180117190927,RACHELW,20210707194543,{5827ACFB-EB7B-4FB7-BA68-2A7BA261DD00},SD1,Health,,Urban Facilities,-123.235633,49.253566
VPOI10370,VAD11031,UBC Health Clinic,,,Strangway,,medical,,https://clinic.familymed.ubc.ca/,Phone: (604) 822-5431; Fax: (604) 822-4089,M-F: 9am - 5pm,,,Current,Civic,,GISSTUD1,20180117190435,RACHELW,20210707194545,{42E94463-B54F-491A-AEBE-F3FDA673BB7C},SD1,Health,,Urban Facilities,-123.245843,49.266003
VPOI10321,VAD10412,Allan McGavin Sports Medicine Clinic Physiotherapy,,,University Services Building,,medical,,https://www.allanmcgavinphysio.com/,,,,,Current,Civic,,GISSTUD1,20180117190435,RACHELW,20210707194546,{876D6C16-FFA5-48FD-B2F6-233B1EC5EDC1},SD2,Health,,Urban Facilities,-123.253832,49.261445
VPOI10306,VAD10106,Pharmacists Clinic,,,Pharmaceutical Sciences Building,,medical,,,,,,,Current,Civic,,GISSTUD1,20180117190435,RACHELW,20210707194546,{BB0628E9-5D5B-4F63-9347-3D18D9F726F5},SD2,Health,,Urban Facilities,-123.243073,49.262413
VPOI10357,VAD11138,PhysioWorks,,,Village Square,,medical,,http://ptworks.ca/,Phone: (604) 566-2222,M-F: 7am - 7pm; Sat: 9am - 2pm,,,Current,Civic,,GISSTUD1,20180706191934,RACHELW,20210707194547,{06878151-F29D-42A8-963F-ACFDE66248B1},SD2,Health,,Urban Facilities,-123.236189,49.254102
VPOI10355,VAD10080,Cognitive Improvement Centre,,,TEF3,,medical,,,,,,,Current,Civic,,GISSTUD1,20180719175858,RACHELW,20210707194548,{99DA05E9-E9A7-4547-959D-0B4FA93A3F29},ED4,Education,,Urban Facilities,-123.246322,49.261301
VPOI10151,VAD11030,TBD,,,David Lam,,cafe,,,,,N,SHHS,Pending,Services,,,,RACHELW,20210707211613,{02DA7E22-B492-4785-96BB-04C23EF2144F},,,,,-123.254283,49.26578
VPOI10137,VAD10831,Campus Security (Lost and Found),Campus Security,,UBC Bookstore,service,campus_services,http://www.infrastructuredevelopment.ubc.ca/rrs2/photos/337.jpg,http://www.security.ubc.ca/,(604) 822-2222,7:30am - 6:30pm,N,UBC,Current,Civic,,,,TONYZ,20210719032011,{00DCD2A0-0644-4E24-A3C1-BA8EBB9AFDCF},,,,Academic,-123.25026,49.265013
VPOI10339,VAD10023,"Centre for Teaching, Learning and Technology (CTLT)",,,Irving K. Barber,,department,,http://ctlt.ubc.ca/,Phone: (604) 827-0360; Email: ctlt.info@ubc.ca; Events: ctlt.events@ubc.ca; Fax: (604) 822-9826,,N,UBC,Current,Civic,,,,RACHELW,20210707211856,{FE577749-BC1E-4677-94A7-53D4FBCED56D},,,,Academic,-123.252633,49.267543
VPOI10341,VAD10023,Chapman Learning Commons,,,Irving K. Barber,,campus_services,,http://learningcommons.ubc.ca/,Phone: (604) 827-3909; Email Learning Services Librarian: alex.kuskowski@ubc.ca,M-Thurs: 8am - 10pm; Fri: 8am - 6pm; Sat & Sun: 10am - 6pm,N,Library,Current,Civic,,,,RACHELW,20210707211856,{431DF689-1AB7-4459-BAF8-A73D1CA1D70C},,,,Academic,-123.25293,49.267627
VPOI10083,VAD10023,UBC Archives,,,Irving K. Barber,,library,http://www.infrastructuredevelopment.ubc.ca/rrs2/photos/516.jpg,http://archives.library.ubc.ca/,Phone: (604) 822-5877; Email: http://archives.library.ubc.ca/contact-us/; Fax: (604) 822-9587,M-F: 10am - 4pm; Sat: 12pm - 5pm (Oct-Apr),N,Library,Current,Civic,,,,RACHELW,20210707211951,{55A56026-523F-48F5-801D-E9104ECD9186},ED4,Education,,Urban Facilities,-123.252976,49.267876
VPOI10214,VAD10023,UBC Library,,,Irving K. Barber,,library,http://www.infrastructuredevelopment.ubc.ca/rrs2/photos/516.jpg,http://www.ikebarberlearningcentre.ubc.ca/,Information Desk: (604) 822-2725,Mon/Thurs/Fri: 9am - 5pm; Tues/Wed: 9am - 8pm; Sat: 12pm - 5pm; Sun: Closed,N,Library,Current,Civic,,,,RACHELW,20210707211953,{2E674360-C124-4F3B-89B2-4F5C46D42714},CU5,Cultural,,Urban Facilities,-123.252705,49.267556
VPOI10175,VAD11106,Wellness Centre,,,Life Building,,campus_services,,https://students.ubc.ca/health-wellness/peer-support-wellness-centre,Phone: (604) 822-8450; Email: wellness.centre@ubc.ca,Tues-Thurs: 11am - 3pm,N,UBC,Current,Civic,,,,RACHELW,20210707212137,{4ADF73C9-642E-47D4-868D-068D273115C7},BS4,Social welfare,,Urban Facilities,-123.252687,49.267618
VPOI10377,VAD11120,Farmers Market,Farmers Market,,UBC Farm,attraction,farmers market,,,,,N,UBC,Current,Retail,,,,TONYZ,20210923032418,{0E2FEA72-0E4B-4F9A-A497-58E27E645CBD},CO9,Commercial,5-10,Legal Entities,-123.237846,49.250699
VPOI10441,VAD10023,UBC Digitization Centre,,,Irving K. Barber,,campus_services,,http://learningcommons.ubc.ca/,Phone: (604) 827-3909; Email Learning Services Librarian: alex.kuskowski@ubc.ca,M-Thurs: 8am - 10pm; Fri: 8am - 6pm; Sat & Sun: 10am - 6pm,N,Library,Current,Civic,,RACHELW,20210707212211,RACHELW,20210707212255,{815EA452-1EA1-4B0E-A1A0-24E801E72590},,,,Academic,-123.25293,49.267627
VPOI10215,VAD10415,UBC Welcome Centre,,,Alumni Centre,,campus_services,,http://welcomecentre.ubc.ca/,Phone: (604) 822-3313; Email: alumni.ubc@ubc.ca,M-F: 8am - 6pm; Sat: 10am - 4pm; Sun: Closed,N,UBC,Current,Civic,,,,TONYZ,20210713174629,{DAA7EEA2-3453-4534-9E97-5A2449759D40},CU1,Cultural,,Urban Facilities,-123.249718,49.266021
VPOI10418,,Trolley Bus Loop,UBC Loop,,,,transit,,,,,N,TransLink,Current,Civic,,,,RACHELW,20210910001809,{B3367DAD-678D-4DD9-B8F8-A4FB71301867},,,,,-123.248129,49.26581
VPOI10422,,University Golf Club,University Golf Club,,,garden,other,http://pinterest.com/pin/124412008426428017/,http://www.universitygolf.com,Phone: (604) 224-7799; Email: admin@universitygolf.com,,N,UEL,UEL,Services,,,,RACHELW,20210630204917,{B1BEF37E-1880-4C8D-9988-3EB00C44BB60},CO16,Commercial,10-15,Legal Entities,-123.228769,49.263952
VPOI10052,,University Endowment Lands,,UEL,,UEL,other,,,,,N,UEL,UEL,,,,,RACHELW,20210630204921,{4B7C5831-5AE2-444C-AD84-C4464F4EBD0E},,,,,-123.245229,49.270269
VPOI10328,,Prime News,,,University Village,,retail,,,Phone: (604) 221-1197,M-Thurs: 10am - 7pm; Fri: 10am - 9pm; Sat: 11am - 7pm,N,UEL,UEL,Retail,,,,RACHELW,20210630205143,{3550F4F1-154F-4A37-8FDE-306DEF03CC59},CO14,Commercial,0-5,Legal Entities,-123.24304,49.266004
VPOI10012,,Pearl Fever Tea House ,,,University Village,,cafe,,http://www.pearlfever.ca/,Phone: (604) 221-9882,Daily: 11am - 11pm,N,UEL,UEL,Services,,,,RACHELW,20210630205128,{82405A7A-0F07-4F8C-B8A6-CCAA0F9C2796},CO4,Commercial,5-10,Legal Entities,-123.243176,49.26587
VPOI10023,,Hannah and Samuel Flower Shop,,,University Village,,commercial_services,,http://www.hsflowers.ca/,Phone: (604) 228-0113,M-F: 9:30am - 6:30pm; Sat: 10am - 6pm; Sun: Closed,N,UEL,UEL,Services,,,,RACHELW,20210630205133,{BCFD2C0A-F37C-4E19-AE77-2548C744EC5F},CO14,Commercial,0-5,Legal Entities,-123.243636,49.266226
VPOI10329,,Little Mountain Learning Academy ,,,University Village,,commercial_services,,http://www.lmacademics.com/,Phone: (604) 221-2363,M-F: 9am - 6pm; Sat/Sun: Closed,N,UEL,UEL,Services,,,,RACHELW,20210630205142,{F2847F81-898E-44AF-9E16-C9ACD8BDCF49},CO15,Commercial,5-10,Legal Entities,-123.243049,49.265798
VPOI10327,,House of Vision,,,University Village,,retail,,http://houseofvisionoptical.com/,Phone: (604) 225-0708; Email: houseofvisionoptical@gmail.com; Fax: (604) 225-0709,M-F: 10am - 6:30pm; Sat: 10am - 6pm; Sun: 11am - 5pm,N,UEL,UEL,Retail,,,,RACHELW,20210630205144,{1D71454C-4EF0-4A41-98F5-D12E2E9D9ABB},CO14,Commercial,0-5,Legal Entities,-123.242308,49.266
VPOI10326,,Granville Island Produce at University,,,University Village,,grocery,,,Phone: (604) 677-3388,,N,UEL,UEL,Food,,,,RACHELW,20210630205147,{25BDA999-7AD3-4761-8D8B-B9B1A3572D9E},CO9,Commercial,0-5,Legal Entities,-123.243002,49.265752
VPOI10325,,Staples,,,University Village,,commercial_services,,http://www.staples.ca/,Phone: (604) 221-4780; Email: https://www.staples.ca/sbdca/en_CA/content/help-centre/contact-us.html,M-F: 9am - 7pm; Sat: 10am - 6pm; Sun: 10am - 6pm,N,UEL,UEL,Services,,,,RACHELW,20210630205149,{03D825B4-91EA-44E2-861C-6C8F6E6FC4C4},CO15,Commercial,10-15,Legal Entities,-123.242197,49.26626
VPOI10297,,University VIllage Medical Clinic,,,University Village,,medical,,http://www.universityvillageclinic.com/,Phone: (604) 222-2273,,N,UEL,UEL,Civic,,,,RACHELW,20210630205150,{B258A2B3-E108-4171-9ECC-5E1C67BE0863},SD1,Health,,Urban Facilities,-123.242255,49.266342
VPOI10247,,Bank of Montreal,,,University Village,,bank,,https://branches.bmo.com/bc/vancouver/b0811/,Phone: (604) 665-7076; Fax: (604) 222-4500,M-F: 10am - 5pm,N,UEL,UEL,Services,,,,RACHELW,20210630205151,{F52A5421-5A1A-4500-AF33-9A75F12B0E51},CO5,Commercial,10-15,Legal Entities,-123.243405,49.265965
VPOI10135,,Regent College,,,Regent College,,commercial_services,,http://www.regent-college.edu/,Phone: (604) 224-3245; Email: admissions@regent-college.edu,,N,UEL,UEL,Services,,,,RACHELW,20210630205155,{1FA44768-B76B-4E08-AB7A-1A1949226087},CI1,Civic,15-20,Legal Entities,-123.244084,49.265675
VPOI10132,,Gold's Gym,,,University Village,,commercial_services,,http://goldsgymbc.ca/,Phone: (604) 224-4699; Email: info@goldsgymbc.ca,M-F: 6am - 11pm; Sat/Sun: 7am - 9pm,N,UEL,UEL,Services,,,,RACHELW,20210630205157,{63324E0A-ADB6-4EA6-88EC-12F84D3058CB},CO16,Commercial,10-15,Legal Entities,-123.242308,49.26632
VPOI10060,,Pacific Spirit Dental,,,University Village,,medical,,http://www.pacificspiritdental.ca/,Phone: (604) 224-2411,M-F: 8am - 5pm,N,UEL,UEL,Civic,,,,RACHELW,20210630205200,{CDB9BF92-DF4A-445E-BB76-D877C99F7185},SD2,Health,,Urban Facilities,-123.242825,49.265955
VPOI10024,,Starbucks,,,University Village,,cafe,,http://www.food.ubc.ca/place/starbucks/,Phone: (604) 221-0200,M-F: 6am - 10:30pm; Sat/Sun: 7am - 10pm,N,UEL,UEL,Services,,,,RACHELW,20210630205202,{F2A4C522-5B97-4C4F-BE74-C8B16750B0CF},CO4,Commercial,10-15,Legal Entities,-123.242749,49.26585
VPOI10043,,Pita Pit,,,University Village,,cafe,,http://pitapit.ca/,Phone: (604) 221-7488; Email: info@pitapit.com; Fax: (604) 221-7487,M-Thurs: 10:30am - 1:00am; Fri-Sat: 10:30am - 2:00am; Sun: 11am - 1am,N,UEL,UEL,Services,,,,RACHELW,20210630205203,{8F03320C-B319-4B50-9D27-12288651806B},CO3,Commercial,10-15,Legal Entities,-123.242124,49.26609
VPOI10045,,Oven Fresh Bakery,,,University Village,,cafe,,,Phone: (604) 222-8886,M-F: 8am - 7pm; Sat: 9am - 6pm; Sun: 9:30am - 6pm,N,UEL,UEL,Services,,,,RACHELW,20210630205205,{7A6B3B77-CE3E-4BDE-9CB6-3606F1B089E3},CO4,Commercial,5-10,Legal Entities,-123.243468,49.266037
VPOI10046,,Maurya Express,,,University Village,,cafe,,https://mauryaexpress.ca/,Phone: (604) 225-2288,Daily: 11am - 9pm,N,UEL,UEL,Services,,,,RACHELW,20210630205206,{BC26F0EF-57F7-4063-835D-1D616F18FB84},CO2,Commercial,5-10,Legal Entities,-123.243445,49.26601
VPOI10088,,Dollar "N" Plus ,,,University Village,,retail,,https://www.vancouverdollarstore.ca/,Phone: (604) 228-9818,Daily: 9am - 9pm,N,UEL,UEL,Retail,,,,RACHELW,20210630205209,{0F3B00D4-6349-49D9-8914-43BDC29348FD},CO14,Commercial,5-10,Legal Entities,-123.242181,49.266045
VPOI10128,,One More Sushi ,,,University Village,,restaurant,,http://onemoresushi.ca/,Phone: (604) 228-9772; Fax: (604) 228-9773,M-F: 11am - 3pm & 5pm - 10pm; Sat: 12pm - 10pm; Sun: Closed,N,UEL,UEL,Services,,,,RACHELW,20210630205212,{DAC37D9B-7071-45C1-9235-084AF94B5290},CO2,Commercial,10-15,Legal Entities,-123.242527,49.266024
VPOI10129,,Subway,,,University Village,,cafe,,http://www.food.ubc.ca/place/subway/,Phone: (604) 620-8948,M-F: 7am - 10pm; Sat/Sun: 9am - 10pm,N,UEL,UEL,Services,,,,RACHELW,20210630205213,{A2E6A5A5-B442-4DA4-9895-1F99489415BC},CO3,Commercial,10-15,Legal Entities,-123.243203,49.265896
VPOI10130,,Booster Juice,,,University Village,,cafe,,http://boosterjuice.com/,Phone: (604) 568-6603,M-F: 8am - 9pm; Sat: 9am - 9pm; Sun: 10am - 6pm,N,UEL,UEL,Services,,,,RACHELW,20210630205215,{6AD34C9D-6C74-4765-B5DB-A82F7DB204B8},CO4,Commercial,10-15,Legal Entities,-123.242835,49.266075
VPOI10131,,Only U Cafe,,,University Village,,cafe,,http://www.facebook.com/pages/Only-U-Cafe/431021496919221,Phone: (604) 221-6511,M-F: 8am - 5pm; Sat: Closed; Sun: 10am - 3pm,N,UEL,UEL,Services,,,,RACHELW,20210630205217,{DA6EDE95-BFE1-4213-8589-98BDF024B62F},CO4,Commercial,5-10,Legal Entities,-123.242381,49.265977
VPOI10008,,Lutheran Campus Centre,,,,,worship,,,Phone: (604) 224-1614,,N,UEL,UEL,Civic,,,,RACHELW,20210630205438,{E517453C-07E6-4B2B-AF6E-277F23594CC7},CI1,Civic,0-5,Legal Entities,-123.245249,49.266712
VPOI10420,,Thunderbird Park,Thunderbird Park,,Thunderbird Park,garden-l,athletics,,https://sportfacilities.ubc.ca/thunderbird-park/,Phone: (604) 822-6000,,N,Athletics,Current,Services,,,,RACHELW,20210630211353,{1B09085E-C2BA-41DF-B5C7-691BABC73BDE},DE3,Sports,,Urban Facilities,-123.241371,49.258145
VPOI10260,VAD10824,UBC Energy and Water Services,,,Campus Energy Centre,,campus_services,,http://energy.ubc.ca/,Phone: (604) 822-9445,,N,UBC,Current,Civic,,,,RACHELW,20210630211536,{9DCACC31-D564-4E05-9FB3-C226DB0FB931},,,,Academic,-123.245104,49.26165
VPOI10314,VAD10774,UBC Properties Trust,UBC Properties Trust General Office,UBCPT,Wesbrook Professional Centre,,other,,https://www.ubcproperties.com/,Phone: (604) 731-3103,,,,Current,,,GISSTUD1,20180713174847,RACHELW,20210630212517,{D2D4D906-FB6D-4FB4-B74F-306E2E2BA097},,,,,-123.236379,49.254516
VPOI10182,VAD10840,Centre for Accessibility,,,Brock Hall,,campus_services,,https://students.ubc.ca/about-student-services/centre-for-accessibility,Phone: (604) 822-5844; Email: info.accessibility@ubc.ca; Fax: (604) 822-6655,"Mon, Wed, Fri: 8:30am - 4:30pm; Tues: 8:30am - 5pm; Thurs: 8:30am - 4pm",N,UBC,Current,Civic,,,,RACHELW,20210707194227,{41962AED-9967-4D56-983F-6C6226B38BD6},,,,Academic,-123.252197,49.268632
VPOI10356,VAD10615,Faculty Staff Housing and Relocation Services,,,Wesbrook Professional Centre,,campus_services,,http://www.hr.ubc.ca/housing-relocation/,Phone: (604) 822-6115,,,,Current,Civic,,GISSTUD1,20180712225355,RACHELW,20210707194228,{77C8CCB7-62C3-404C-8437-F05796BE18DF},,,,Academic,-123.236501,49.254539
VPOI10261,VAD10840,Enrolment Services,,,Brock Hall,,campus_services,,https://students.ubc.ca/about-student-services/enrolment-services-professionals-esp#contact-us,Phone: (604) 822-9836,"Mon, Wed, Thurs, Fri: 9:30am - 4pm; Tues: 10am - 4pm",N,UBC,Current,Civic,,,,RACHELW,20210707194229,{D3230AAB-A36C-42DF-A72C-73197600D35F},,,,Academic,-123.252197,49.268632
VPOI10262,VAD10840,Equity and Inclusion Office,,,Brock Hall,,campus_services,,http://equity.ubc.ca/,Phone: (604) 822-6353; Email: info@equity.ubc.ca; Fax: (604) 822-3260,,N,UBC,Current,Civic,,,,RACHELW,20210707194229,{0E241587-ABF9-414F-A03E-D161C3C16329},,,,Academic,-123.252197,49.268632
VPOI10363,VAD10774,Acts Technologies Inc.,,,Wesbrook Professional Centre,,commercial_services,,,,,,,Current,Services,,GISSTUD1,20180712210235,RACHELW,20210707194246,{465FC5BC-705C-4208-854C-544B15C44B6D},CO17,Commercial,,Legal Entities,-123.236322,49.254458
VPOI10365,VAD10033,Alpha Nanotech Inc.,,,3800 Wesbrook Mall,,commercial_services,,https://www.alphananotechne.com/,Phone: (877) 419-0711; Email: info@alphananotechne.com,M-F: 9am - 6pm,,,Current,Services,,GISSTUD1,20180712231010,RACHELW,20210707194247,{8E1EFB80-7DED-48B1-9232-A07DA920C2FB},CO17,Commercial,,Legal Entities,-123.230906,49.250034
VPOI10366,VAD10033,Canada Zhonghe Investment Ltd.,,,3800 Wesbrook Mall,,commercial_services,,,,,,,Current,Services,,GISSTUD1,20180713171933,RACHELW,20210707194248,{426C72F1-4DFE-42A2-A57E-460B038EB662},CO15,Commercial,,Legal Entities,-123.230909,49.250052
VPOI10368,VAD10042,Commercial Dog Walker Heart and Hound,,,Tamarack House,,commercial_services,,,,,,,Current,Services,,GISSTUD1,20180712230648,RACHELW,20210707194248,{B45AF266-FF66-45A6-BA81-6573EE74CDE2},,,,,-123.246372,49.259672
VPOI10279,VAD10616,Mangrove Water Technologies,,,,,commercial_services,,,,,,,Current,Services,,GISSTUD1,20180712225049,RACHELW,20210707194249,{3ACEA73F-03CF-44E4-B324-C9A3289DDFED},CO17,Commercial,,Legal Entities,-123.249816,49.266553
VPOI10281,VAD11034,Motion Metrics International,,,Donald Rix,,commercial_services,,http://www.motionmetrics.com/,Phone: (604) 822-5842,M-F: 9am - 5pm,,,Current,Services,,GISSTUD1,20180712211934,RACHELW,20210707194250,{254D8D3D-D53C-4997-B232-AFFF8A23B366},CO17,Commercial,,Legal Entities,-123.246484,49.262115
VPOI10362,VAD10033,Shougang International (Canada) Investment Ltd.,,,3800 Wesbrook Mall,,commercial_services,,,,,,,Current,Services,,GISSTUD1,20180713172012,RACHELW,20210707194251,{5BE6728F-443D-4FC8-AFE4-F46B90DA9A80},CO15,Commercial,,Legal Entities,-123.23091,49.250048
VPOI10380,VAD10033,PI Pharma Inventor Inc,,,3800 Wesbrook Mall,,commercial_services,,http://www.pharmainventor.com/index.html,Phone: (604) 339-3244,M-F: 8am - 5pm,,,Current,Services,,GISSTUD1,20180712211444,RACHELW,20210707194253,{E1299E85-325E-4A80-8B19-52468F7EA228},CO17,Commercial,,Legal Entities,-123.230842,49.2502
VPOI10278,VAD10033,Frontier Sonde Inc,,,3800 Wesbrook Mall,,commercial_services,,,Phone: (604) 757-3500,,,,Current,Services,,GISSTUD1,20180712211115,RACHELW,20210707194253,{A246F5FF-B8D6-4EAA-B0FE-D96E3F2A44AE},CO17,Commercial,,Legal Entities,-123.230379,49.250177
VPOI10385,VAD10033,Zyme Biotech Inc. ,,,3800 Wesbrook Mall,,commercial_services,,,,,,,Current,Services,,GISSTUD1,20180712231150,RACHELW,20210707194254,{76189D79-1D6C-4C33-B072-AB404EFF37E3},CO17,Commercial,,Legal Entities,-123.230697,49.250303
VPOI10290,VAD10357,Xwi7xwa Library,,,First Nations Longhouse,,library,http://www.infrastructuredevelopment.ubc.ca/rrs2/photos/337.jpg,http://xwi7xwa.library.ubc.ca/,Information Desk: (604) 822-8738,M-F: 9am - 5pm; Sat/Sun: Closed,N,Library,Current,Civic,,,,RACHELW,20210706211310,{20820226-A8AB-44B4-B692-0CFDEF16FE83},CU2,Cultural,,Urban Facilities,-123.256614,49.265482
VPOI10085,VAD10616,Gallery Patio and Lounge,,,"AMS Nest, Level 4",,restaurant,,http://www.ams.ubc.ca/foodanddrink/gallery/,Phone: (604) 827-5660,M-F: 11am - 10pm,N,AMS,Current,Services,,,,RACHELW,20210707192021,{DAE45555-1FD3-4206-B5BD-9399CB7EE42F},CO2,Commercial,15-20,Legal Entities,-123.250066,49.266714
VPOI10019,VAD10616,i Campus Vision,,,"AMS Nest, Lower Level",,retail,,https://www.campusvision.com/,,,N,Non-UBC,Current,Retail,,,,RACHELW,20210707192030,{B7B657D5-272C-47E1-B563-99B2F39BFE44},CO14,Commercial,0-5,Legal Entities,-123.249824,49.266611
VPOI10022,VAD10616,Wireless Wave,,,"AMS Nest, Level 1",,retail,,http://www.wirelesswave.ca,,,N,Non-UBC,Current,Retail,,,,RACHELW,20210707192049,{E76A7753-6047-4848-A5AB-E9AECB5FE9B1},CO14,Commercial,0-5,Legal Entities,-123.249918,49.266987
VPOI10176,VAD10616,AMS Peer Support,,,AMS Nest,,campus_services,,https://www.ams.ubc.ca/student-services/speakeasy/,Phone: (604) 822-9246; Email: speak@ams.ubc.ca,M-F: 10am - 6pm,N,AMS,Current,Civic,,,,RACHELW,20210707192445,{A322C03B-B9FF-433F-AA7C-AD5AA757F099},BS4,Social welfare,,Urban Facilities,-123.249865,49.266446
VPOI10217,VAD10616,Blue Chip Cafe,,,"AMS Nest, Level 1",cafe,cafe,,https://www.ams.ubc.ca/the-nest/eat/,Phone: (604) 822-6999; Email: bluechipsup@ams.ubc.ca,M-F: 7am - 7pm; Sat/Sun: 9am - 5pm,N,AMS,Current,Services,,,,RACHELW,20210707192751,{C8BCCFE9-454C-435E-8897-C316C97D47E2},CO4,Commercial,10-15,Legal Entities,-123.24981,49.266751
VPOI10361,,Norman MacKenzie Square,Norman MacKenzie Square,,,garden,plaza,,,,,N,UNA,Current,Civic,,RACHELW,20200730233130,RACHELW,20210707192907,{A6611A1D-D87D-4F3B-A812-C311E40B1D6D},DE5,Sports,,Urban Facilities,-123.2354,49.25416
VPOI10421,,Basketball Court,Basketball Court,,,garden,park,,,"Department of Athletics & Rec, Phone: (604) 827-2764; Fax: (604) 822-6011",,N,UNA,Current,Civic,,,,RACHELW,20210707192910,{17D6BD30-E214-490C-9ABA-4DAC69D16179},DE1,Sports,,Urban Facilities,-123.244044,49.260974
VPOI10406,,Acadia Park Playground,Playground,,,garden,park,,,,,N,SHHS,Current,Civic,,,,RACHELW,20210707192913,{CDC6210E-0C4C-40F3-ABFB-E3C9E8B6A4F1},DE5,Sports,,Urban Facilities,-123.238065,49.262937
VPOI10350,,Koerner Plaza,Koerner Plaza,,,garden,plaza,,,,,N,UBC,Current,Civic,,,,RACHELW,20210707192916,{1D0EFD60-D67B-402F-89A3-E73688EFFA2C},,,,,-123.254633,49.266812
VPOI10144,VAD11122,Roseline Sturdy Amphitheatre,Roseline Sturdy Amphitheatre,,Botanical Garden,garden,plaza,,http://botanicalgarden.ubc.ca/rentals/facilities/roseline-sturdy-amphitheatre/,Phone: (604) 827-3907; Email: garden.programs@ubc.ca,,N,UBC,Current,Civic,,,,RACHELW,20210707193638,{B5F26D78-12CB-4C00-8581-95E7F3D618E3},,,,,-123.24726,49.254511
VPOI10415,VAD11122,Taylor Plaza,Taylor Plaza,,Botanical Garden,garden,plaza,,,,,N,UBC,Current,Civic,,,,RACHELW,20210707193639,{2C705B03-08F1-471D-9B4C-3FAD8845E593},,,,,-123.24679,49.252955
VPOI10058,,Tower Beach,Tower Beach,,,beach,park,,,,,N,Metro,UEL,Civic,,,,RACHELW,20210707193645,{87527929-2C2B-4AAD-8CA7-BABEF413119F},DE5,Sports,,Urban Facilities,-123.256438,49.27403
VPOI10057,,Pacific Spirit Regional Park,,PSRP,,PSRP,park,,,,,N,Metro,UEL,Civic,,,,RACHELW,20210707193646,{70F5A091-FEA7-4189-B67A-3D67DFB328AB},DE5,Sports,,Urban Facilities,-123.262499,49.265351
VPOI10055,,Pacific Spirit Regional Park,,PSRP,,PSRP,park,,,,,N,Metro,UEL,Civic,,,,RACHELW,20210707193646,{DB93B361-B233-4B2B-9E1F-87EDF321D2ED},,,,,-123.225461,49.251777
VPOI10056,,Wreck Beach,Wreck Beach,,,beach,park,,,,,N,Metro,UEL,Civic,,,,RACHELW,20210707193647,{F348E8EA-0EC4-45ED-AC17-98FD8E712C1D},DE5,Sports,,Urban Facilities,-123.263261,49.268483
VPOI10006,,Rhododendron Wood,Rhododendron Wood,,,garden-l,park,,,,,N,UBC,Current,Civic,,,,RACHELW,20210707193647,{D4180CE1-50C8-4626-B8FE-34B754855D53},DE5,Sports,,Urban Facilities,-123.246862,49.256678
VPOI10205,,Fairview Grove,Fairview Grove,,,garden,park,,,,,N,UBC,Current,Civic,,,,RACHELW,20210707193648,{9BFDEA9E-0773-43E9-AC93-1EBE72726FA4},DE5,Sports,,Urban Facilities,-123.250619,49.262903
VPOI10125,,The Bosque,The Bosque,,,garden,park,,,,,N,UBC,Current,Civic,,,,RACHELW,20210707193649,{46923F7E-8299-49DD-9A58-32EECE15F9D1},,,,,-123.251216,49.26723
VPOI10371,VAD11139,Virtuous Pie,,,Village Square,,restaurant,,https://virtuouspie.com/locations/canada/ubc-wesbrook-village/,Phone: (604) 428-1060,Sun-Thurs: 11am - 10pm; Fri-Sat: 11am - 11pm,,,Current,Services,,GISSTUD1,20180706192943,RACHELW,20210707193653,{D05BF436-B770-487F-BC75-148894D7CA22},CO2,Commercial,,Legal Entities,-123.235851,49.254019
VPOI10354,VAD10616,AMS Nest Food Court,Food Court,,AMS Nest,restaurant,restaurant,,https://www.ams.ubc.ca/the-nest/eat/,Phone: (604) 822-2901; Fax: (604) 822-9019,,,,Current,Services,,GISSTUD1,20180515201558,RACHELW,20210707193654,{B51C4529-C5EB-4DA8-A270-B279A7EAD998},,,,,-123.249988,49.266616
VPOI10320,VAD10091,Uncle Fatih's Pizza,,,Central,,restaurant,,http://orders.unclefatih.com/zgrid/themes/10788/intro/index.jsp,Phone: (604) 428-6253,M-Th: 10am - 1am; Fri: 10am - 3am; Sat: 10am - 2am; Sun: 10am - 12am,,,Current,Services,,GISSTUD1,20180719182209,RACHELW,20210707193656,{DDA4FE06-227E-42B8-8929-9CB642EBC063},CO3,Commercial,10-15,Legal Entities,-123.247505,49.266209
VPOI10206,,University Village various venues,,,University Village,,retail,,,,,N,UEL,UEL,Retail,,,,RACHELW,20210707193702,{A01DDBB6-E019-44DD-9E9F-659EED5E845A},,,,,-123.242792,49.266261
VPOI10428,VAD11180,Brock Mini Mart,,,Brock Commons,,minimart,,http://www.food.ubc.ca/place/gage-mini-mart/,Phone: (604) 822-5494,,N,SHHS,Current,Food,,RACHELW,20210430002334,RACHELW,20210707193738,{88E2326D-69A3-417F-8A9E-1D00B56F15E2},CO10,Commercial,0-5,Legal Entities,-123.252811,49.268964
VPOI10427,VAD11147,Gage Mini Mart,,,Walter Gage Residence,,minimart,,http://www.food.ubc.ca/place/gage-mini-mart/,Phone: (604) 822-5494,,N,SHHS,Current,Food,,RACHELW,20210430002314,RACHELW,20210707193739,{2FA0FE62-A632-4836-8352-41144F6965E0},CO10,Commercial,0-5,Legal Entities,-123.249617,49.269436
VPOI10224,,Mini Super,,,University Village,,minimart,,http://www.facebook.com/pages/Mini-Super-at-UBC/249485448568472?sk=timeline&amp;ref=page_internal,,,N,UEL,UEL,Food,,,,RACHELW,20210707193739,{87F9A27E-83A9-4BBB-9D0A-A7D9BA6940B5},CO10,Commercial,0-5,Legal Entities,-123.242675,49.266645
VPOI10319,VAD10604,Hubbard's,,,Place Vanier Residence,,minimart,,http://www.food.ubc.ca/place/hubbards,Phone: (604) 822-5805,Daily: 5pm - 11pm,N,SHHS,Current,Food,,,,RACHELW,20210707193740,{EF9C6CE3-E7F6-48A1-B33E-A9438C8DECE7},CO10,Commercial,0-5,Legal Entities,-123.258818,49.264881
VPOI10180,,H-Mart,,,University Village,,minimart,,http://www.hmart.ca/main/frame.php,,,N,UEL,UEL,Food,,,,RACHELW,20210707193740,{FA61C464-2C9E-47F3-BACA-1EA54D64A2C8},CO10,Commercial,5-10,Legal Entities,-123.243084,49.266614
VPOI10037,VAD11103,Corner Store,,,UBC Bookstore,,minimart,,http://shop.bookstore.ubc.ca/c-471-corner-store.aspx,Phone: (604) 822-2665,Mon/Tues/Thurs/Fri: 8:30am - 6pm; Wed: 8:30am - 7pm; Sat: 11am - 5pm; Sun: Close,N,SHHS,Current,Food,,,,RACHELW,20210707193741,{30FE8410-E335-4F5C-81FF-6B3096097F7B},CO10,Commercial,0-5,Legal Entities,-123.250785,49.265213
VPOI10100,VAD10169,Harvest,,,Ponderosa Commons Oak House,,minimart,,http://www.food.ubc.ca/place/harvest/,Phone: (604) 827-3007,Mon-Sun: 7am - 10pm,N,SHHS,Current,Food,,,,RACHELW,20210707193741,{B409A3D5-C316-4060-ACE5-F86EC20D04E1},CO9,Commercial,10-15,Legal Entities,-123.255742,49.263983
VPOI10077,VAD11095,Magda's Mini Mart,,,Totem Park Residence Front Desk,,minimart,,http://www.food.ubc.ca/place/magdas/,Phone: (604) 822-4221,,N,SHHS,Current,Food,,,,RACHELW,20210707193742,{4E99CD59-93BB-49F9-A0C1-2D46D4C32D5B},CO10,Commercial,0-5,Legal Entities,-123.252812,49.25788
VPOI10155,VAD10616,INS Market,,,"AMS Nest, Lower Level",,minimart,,,,,N,Non-UBC,Current,Food,,,,RACHELW,20210707193742,{7196B95C-BC60-4905-AFD7-F34DD9932076},CO10,Commercial,5-10,Legal Entities,-123.249792,49.266573
VPOI10154,VAD10080,Fit For Life,,,TEF3,,minimart,,fitforlifefood.com,,M-Sat: 8am - 8:30pm; Sun: 9am - 6:30pm,Y,Non-UBC,Current,Food,,,,RACHELW,20210707193743,{B12C92AD-DD9A-4914-9A0B-D4CD6C8AEB35},CO10,Commercial,0-5,Legal Entities,-123.246477,49.26134
VPOI10172,VAD11106,Sprouts,,,Life Building,,minimart,,http://www.ubcsprouts.ca/,,M-F: 9:30am - 4:30pm,N,Non-UBC,Current,Food,,,,RACHELW,20210707193743,{6748F4B0-0183-4AA5-800E-057C9DC121FC},CO4,Commercial,0-5,Legal Entities,-123.250105,49.266761
VPOI10330,,Discount Textbooks,,,University Village,,retail,,http://www.discounttextbooks.ca/,Phone: (604) 221-1822,For Store Hours: https://www.facebook.com/discounttextbooks/,N,UEL,UEL,Retail,,,,RACHELW,20210707193810,{486A4206-6049-47C4-872C-096D01AEA7AB},CO14,Commercial,5-10,Legal Entities,-123.243061,49.265917
VPOI10089,VAD11143,Shoppers Drug Mart,,,Village Square,,retail,,https://stores.shoppersdrugmart.ca/en/store/2247/?utm_source=G&utm_medium=lpm&utm_campaign=LPM%20_SDM,Phone: (604) 224-3086,M-S: 8am - 12am,Y,Non-UBC,Current,Retail,,,,RACHELW,20210707193812,{E4AE09ED-4C63-4150-B05D-C7AB72064370},CO7,Commercial,10-15,Legal Entities,-123.236495,49.254067
VPOI10311,VAD10080,Eaton Arrowsmith School,,,TEF3,,school,,http://www.eatonarrowsmith.com/,Phone: (604) 264-8327,M-F: 8am - 5pm,,,Current,Civic,,GISSTUD1,20180704225743,RACHELW,20210707193818,{63C777E3-C30B-4612-AFCA-8E0AB8438305},ED2,,,Urban Facilities,-123.246383,49.261285
VPOI10317,VAD10080,Magnussen School,,,TEF3,,school,,http://www.eatonarrowsmith.com/,Phone: (604) 264-8327,M-F: 8am - 5pm,,,Current,Civic,,GISSTUD1,20180117190435,RACHELW,20210707193819,{FC20DFC8-5CBE-4522-AC3A-432D6B8A9AF0},ED1,Education,,Urban Facilities,-123.246443,49.26127
VPOI10313,VAD10828,Carey Theological College,Carey Theological College,,Carey Hall (Carey Theological College),,worship,,http://www.carey-edu.ca,Phone: (604) 225-5920; Email: info@carey-edu.ca; Toll-free: 1-844-862-2739,,N,Non-UBC,Current,Civic,,,,RACHELW,20210707193823,{99DCE7D1-8CF3-4ED5-8EC7-2BACE97E3050},ED4,Education,,Urban Facilities,-123.248494,49.271734
VPOI10211,VAD10023,The Chung Collection Exhibition,,,Irving K. Barber,,attraction,,http://chung.library.ubc.ca/,Phone: (604) 822-2521; Email: chung.collection@ubc.ca,M-F: 10am - 4pm; Sat: 12pm - 5pm (Sept - Apr),N,Library,Current,Civic,,,,RACHELW,20210707193945,{29CFE08B-954B-49AE-BB36-9213615AA945},CU3,Cultural,,Urban Facilities,-123.25278,49.267556
VPOI10359,VAD10179,Museum of Anthropology,,MOA,Museum of Anthropology,,attraction,,https://moa.ubc.ca/,Phone: (604) 822-5087; Email: info@moa.ubc.ca,Tues-Wed: 10am-5pm; Thurs: 10am-9pm; Fri-Sun: 10am-5pm,,,Current,Civic,,GISSTUD1,20180117190435,RACHELW,20210707193946,{413A4E94-1F32-4FD9-AFF6-E59708793CC4},CO12,Commercial,15-20,Legal Entities,-123.259366,49.269235
VPOI10210,VAD10616,Hatch Art Gallery,,,"AMS Nest, Level 2",,attraction,,http://www.ams.ubc.ca/nest/art-gallery/,,,N,AMS,Current,Civic,,,,RACHELW,20210707193950,{E3F475BD-F6D3-4D9E-8192-5ECA9063DB72},CU3,Cultural,,Urban Facilities,-123.249756,49.266525
VPOI10219,VAD11098,AHVA Gallery,Audain Art Centre,,Ponderosa Commons East - Audain Art Centre,attraction,attraction,,https://ahva.ubc.ca/ahva-gallery-home/,Phone: (604) 822-4563; Email: ahva.gallery@ubc.ca; Fax: (604) 822-9003,M-F (Sept-Apr): 12pm - 4pm,N,UBC,Current,Civic,,,,RACHELW,20210707193953,{E3AB0761-F5E2-48B4-B715-0C648609D512},CO12,Commercial,0-5,Legal Entities,-123.254563,49.263866
VPOI10121,VAD10161,Lobby Gallery,,,Lui Institute for Global Issues,,attraction,,,,,N,UBC,Current,Civic,,,,RACHELW,20210707193959,{44FE5CAC-88C5-40FB-8F86-31BF1ACDD172},CO12,Commercial,0-5,Legal Entities,-123.259288,49.267565
VPOI10387,VAD11120,UBC Farm Centre,,,UBC Farm Centre,,attraction,http://ubcfarm.ubc.ca/wp-content/uploads/2010/05/Picture-043.jpg,http://ubcfarm.ubc.ca,farm.team@ubc.ca</br>Phone: (604) 822-5092; Fax: (604) 822-6839,Daily: 9am - 5pm,N,UBC,Current,Civic,,,,RACHELW,20210707194021,{543E7F4F-D71E-4A61-BC5C-4E476DD88FA1},DE5,Sports,,Urban Facilities,-123.23862,49.250585
VPOI10308,VAD10616,Porch,,,"AMS Nest, Level 1",,cafe,,http://www.ams.ubc.ca/foodanddrink/porch/,Email: EMAIL@ams.ubc.ca,M-F 9am - 3pm,,,Current,Services,,GISSTUD1,20180117190927,RACHELW,20210707194032,{ED9ECE9F-F225-4A5D-B4DF-C278A6FF9160},CO4,Commercial,5-10,Legal Entities,-123.249221,49.266214
VPOI10316,VAD11044,The Eatery,,,Engineering Student Centre,,cafe,,https://ubcengineers.ca/eatery/,Email:eatery@ubcengineers.ca,"Mon-Fri, 9:30am - 3pm",,,Current,Services,,GISSTUD1,20180718230428,RACHELW,20210707194032,{C4E681BB-38D2-415F-9943-30DD3D3E831E},CO4,Commercial,5-10,Legal Entities,-123.249216,49.262228
