POI_ID,ADD_ID,PLACENAME,PLACENAME2,ABBREVIATEDPLACENAME,BL_NAME,BL_CLASS,SERVICE_TYPE,PHOTOURL,URL,CONTACT,HOURS,LICENSE,MANAGE,STATUS,LEED,HTML,CREATED_USER,CREATED_DATE,LAST_EDITED_USER,LAST_EDITED_DATE,GLOBALID,BCN_CODE,BCN_LANDUSE,BCN_NOEMP,BCN_CLASS,LAT,LONG
VPOI10010,VAD10706,Epiphany Chapel,,,Epiphany Chapel,,worship,,,Phone: (604) 822-9815,,N,Non-UBC,Current,Civic,,,,RACHELW,20210630204324,{8F3B4519-0EEE-4881-AB79-41034A2AA5F6},CI1,Civic,0-5,Legal Entities,-123.252257,49.271581
VPOI10119,VAD10886,Chan Shun Concert Hall,,,Chan Centre for the Performing Arts,,attraction,,http://chancentre.com/about/,,,N,UBC,Current,Civic,,,,RACHELW,20210630204804,{DFEF43A3-3B2A-4E02-B556-9E428AFF49B9},CO12,Commercial,10-15,Legal Entities,-123.255071,49.269781
VPOI10118,VAD10886,Royal Bank Cinema,,,Chan Centre for the Performing Arts,,attraction,,http://chancentre.com/about/,,,N,UBC,Current,Civic,,,,RACHELW,20210630204804,{EDD99735-EF8E-448D-9B52-D75976CECD4C},CO12,Commercial,0-5,Legal Entities,-123.255071,49.269781
VPOI10117,VAD10886,Telus Studio Theatre,,,Chan Centre for the Performing Arts,,attraction,,http://chancentre.com/about/,,,N,UBC,Current,Civic,,,,RACHELW,20210630204805,{B7562F63-F65A-4BD5-9BB7-5A86C01BAE65},CO12,Commercial,0-5,Legal Entities,-123.255071,49.269781
VPOI10073,VAD11106,Norm Theatre,,,Student Union Building,,attraction,http://www.infrastructuredevelopment.ubc.ca/rrs2/photos/790.jpg,http://www.ams.ubc.ca,webeditor@ams.ubc.ca</br>Phone: (604) 822-2901,,N,AMS,Current,Civic,,,,RACHELW,20210630204805,{BE4940A4-357B-4A70-AC7A-C6F3ACC76060},CO12,Commercial,0-5,Legal Entities,-123.250105,49.267434
VPOI10071,VAD10180,Roy Barnett Recital Hall,,,Music Building,,attraction,http://www.infrastructuredevelopment.ubc.ca/rrs2/photos/575.jpg,http://www.music.ubc.ca/about-us/facilities/roy-barnett-recital-hall.html,,,N,UBC,Current,Civic,,,,RACHELW,20210630204806,{9BD82704-896B-41CD-BB9F-D95F2103B660},CO12,Commercial,5-10,Legal Entities,-123.256806,49.267439
VPOI10228,VAD11146,Data/GIS Lab,,,Walter C. Koerner Library,,library,,http://guides.library.ubc.ca/gis/home,Phone: (604) 822-5587; Email: paul.lesack@ubc.ca,,N,Library,Current,Civic,,,,RACHELW,20210630204859,{3871CC03-B1AE-4D2D-B388-B9E8F848A382},,,,Academic,-123.255108,49.266625
VPOI10220,,Pizza Garden,,,University Village,,cafe,,http://www.pizzagarden.ca/,,,N,UEL,UEL,Services,,,,RACHELW,20210629234247,{A280DB19-D7B2-41A8-8144-912C30EDDE08},CO3,Commercial,10-15,Legal Entities,-123.243497,49.266465
VPOI10004,,East Campus Park,East Campus Park,,,garden,park,,,,,N,UNA,Current,Civic,,,,RACHELW,20210629234421,{727712D5-E121-41E1-8DEE-C5E59E93DDDC},DE5,Sports,,Urban Facilities,-123.239873,49.262355
VPOI10005,,Whit Matthews Field,Whit Matthews,,,field,field,,,,,N,Athletics,Current,Services,,,,RACHELW,20210629234424,{25D0C742-DC51-4DCE-8D13-5A0C9E4C5AE8},DE4,Sports,,Urban Facilities,-123.243072,49.255214
VPOI10007,,Flag Pole Plaza,Flag Pole Plaza,,,garden,plaza,,,,,N,UBC,Current,Civic,,,,RACHELW,20210629234428,{B9A69572-38BE-44F9-857A-061B3CC52380},,,,,-123.256166,49.268884
VPOI10087,,UBC Skate Park,UBC Skate Park,,,garden,park,,,,,N,UNA,Current,Civic,,,,RACHELW,20210629234430,{FD2D86A3-885F-493E-9493-38EF39246E83},DE1,Sports,,Urban Facilities,-123.244471,49.260842
VPOI10122,,UBC Ropes Course,UBC Ropes Course,,,garden,athletics,http://www.flickr.com/photos/26230969@N08/3505922720/in/photostream/,http://www.palropescourse.com/,Email: info@palropescourse.com,,N,Non-UBC,Current,Services,,,,RACHELW,20210629234431,{FB3D4E7E-2D31-499B-AF19-7FC817139DED},CO16,Commercial,5-10,Legal Entities,-123.242797,49.254219
VPOI10193,,Michael Smith Park,Michael Smith Park,,,garden,park,,,,,N,UNA,Current,Civic,,,,RACHELW,20210629234435,{9C502DE4-AF35-4D4E-AAC9-F2E3E8BB6977},DE5,Sports,,Urban Facilities,-123.232653,49.253641
VPOI10197,,Ken Woods Field,Ken Woods ,,,field,field,,,,,N,Athletics,Current,Services,,,,RACHELW,20210629234439,{CC8BFFF8-D344-4C13-BADC-3D69878FDE5C},DE4,Sports,,Urban Facilities,-123.243213,49.258198
VPOI10198,,Wolfson Field,Wolfson,,,field,field,,,,,N,Athletics,Current,Services,,,,RACHELW,20210629234440,{92361232-6B5B-4BFB-9F2D-F1EAD7844B0F},DE4,Sports,,Urban Facilities,-123.242335,49.25845
VPOI10199,,Harry Warren Field,Harry Warren,,,field,field,,,,,N,Athletics,Current,Services,,,,RACHELW,20210629234441,{D41CD5ED-0964-45A6-8217-1F5648DAF3E4},DE4,Sports,,Urban Facilities,-123.242521,49.257088
VPOI10200,,Harold Wright Field,Harold Wright,,,field,field,,,,,N,Athletics,Current,Services,,,,RACHELW,20210629234443,{8A1832B4-536D-4E4F-9FA7-3F878BB51041},DE4,Sports,,Urban Facilities,-123.241494,49.257476
VPOI10201,,Hawthorn Park,Hawthorn Park,,,garden,park,,,,,N,UNA,Current,Civic,,,,RACHELW,20210629234444,{390C740F-7D12-4B1A-95EA-6BFADE891AE8},DE5,Sports,,Urban Facilities,-123.248412,49.257875
VPOI10203,,Eagles Park,Eagles Park,,,garden,park,,,,,N,UNA,Current,Civic,,,,RACHELW,20210629234513,{C3A71C9A-D51A-4D4F-94D6-4670D28FB5E1},DE5,Sports,,Urban Facilities,-123.246395,49.258629
VPOI10204,,Jim Taylor Park,Jim Taylor Park,,,garden,park,,,,,N,UNA,Current,Civic,,,,RACHELW,20210629234515,{98B39304-865D-4B91-92DE-AA5BD2C1A28D},DE5,Sports,,Urban Facilities,-123.247873,49.25923
VPOI10185,,Nobel Park,Nobel Park,,,garden,park,,http://wesbrook.app2.thoughtshop.com/posts/nobel-park#.VYm4Wfm4S70,,,N,UNA,Current,Civic,,,,RACHELW,20210629234523,{430AB3AD-B3F4-428E-A63C-014FCB47DD4C},DE5,Sports,,Urban Facilities,-123.2333,49.250134
VPOI10186,,Mundell Park,Mundell Park,,,garden,park,,http://www.discoverwesbrook.com/posts/mundell-park#.WWPTuojyvcs,,,N,UNA,Current,Civic,,,,RACHELW,20210629234524,{C18F1919-F66C-4A72-A7B0-CD75CF4E5F89},DE5,Sports,,Urban Facilities,-123.236175,49.252312
VPOI10189,,Rasphal Dhillon Track & Field Oval,Rasphal Dhillon,,,field,field,,,,,N,Athletics,Current,Services,,,,RACHELW,20210629234526,{1CF98690-52ED-4464-B91C-5DC646CA6E78},DE4,Sports,,Urban Facilities,-123.238461,49.256579
VPOI10192,,Frank Buck Field,Frank Buck,,,field,field,,,,,N,Athletics,Current,Services,,,,RACHELW,20210629234535,{DD3CC4A7-C039-4516-BCAE-39B78ACA854D},DE4,Sports,,Urban Facilities,-123.241188,49.2589
VPOI10312,,Brockhouse Park,Brockhouse Park,,,garden,park,,,,,N,UNA,Current,Civic,,,,RACHELW,20210629234540,{0A709BA6-8801-4ED6-B9E4-B7ADFEBC6573},DE5,Sports,,Urban Facilities,-123.237431,49.253715
VPOI10346,,Money and Raymond M.C. Lee Square,Lee Square,,,garden,plaza,,,,,N,UBC,Current,Civic,,,,RACHELW,20210629234542,{881A8FFB-76F9-4E4C-AAD1-C29FF5D92D46},,,,,-123.25049,49.265578
VPOI10348,,Davidson Arboretum,Davidson Arboretum,,,garden,garden,,,,,N,UBC,Current,Civic,,,,RACHELW,20210629234545,{C6D69A48-2826-4FD1-B333-52715EB9A691},,,,,-123.257123,49.265197
VPOI10259,VAD11023,Dentistry - Student Advising,,,J.B. Macdonald Building,,campus_services,,,,,N,UBC,Current,Civic,,,,PLAN,20210616200717,{7FAD56F0-E2BE-41E7-8A6C-46832B02EE8E},,,,Academic,-123.245451,49.265512
VPOI10239,VAD10479,College of Health Disciplines,,,Woodward - IRC,,department,,,,,N,UBC,Current,Civic,,,,PLAN,20210616200717,{B6F7F5DE-8300-4E7E-8C44-16699FEF93D3},,,,Academic,-123.246926,49.264769
VPOI10243,VAD10210,"Social Work, School of",,,Jack Bell Building,,faculty/school,,http://socialwork.ubc.ca/,Phone: (604) 822-2255; Fax: (604) 822-8656,,N,UBC,Current,Civic,,,,PLAN,20210616200717,{FFA20459-9444-4D57-8C27-32CD5F2C6E3D},,,,Academic,-123.255098,49.264479
VPOI10167,VAD11131,Purdy Pavilion,,,Purdy Pavilion,,medical,,http://www.vch.ca/Locations-Services/result?res_id=29,Phone: (604) 822-7121; Fax: (604) 822-7653,,N,VCH,Current,Civic,,,,PLAN,20210616200717,{251F6E7F-C622-48DD-B662-04B571D05C69},SD1,Health,,Urban Facilities,-123.245942,49.263265
VPOI10173,VAD10073,Tapestry,,,Tapestry,,seniors,,http://www.discovertapestry.com/our-communities/tapestry-at-wesbrook-village/,Phone: (604) 225-5000,,Y,Non-UBC,Current,Civic,,,,PLAN,20210616200717,{84778721-5ECD-449E-A6C8-EADA9D90937C},BS3,Social welfare,,Urban Facilities,-123.235097,49.254766
VPOI10264,VAD10841,"Arts, Faculty of",,,Buchanan Building,,faculty/school,,https://www.arts.ubc.ca/,Phone: (604) 822-3828; Fax: (604) 822-6096; Email: arts.reception@ubc.ca,,N,UBC,Current,Civic,,,,PLAN,20210616200717,{FA93C9D1-B2DA-4AEC-ACE8-6BDB9635A866},,,,Academic,-123.254922,49.268351
VPOI10275,VAD10184,"Education, Faculty of",,,Scarfe,,faculty/school,,https://educ.ubc.ca/,Phone: (604) 822-5242; Email: info.educ@ubc.ca,,N,UBC,Current,Civic,,,,PLAN,20210616200717,{6732E241-4A57-49F8-8EE1-DA9C227C1521},,,,Academic,-123.252554,49.26392
VPOI10276,VAD10180,"Music, School of",,,Music Building,,faculty/school,,https://music.ubc.ca/,Phone: (604) 822-3113; Fax: (604) 822-4884,,N,UBC,Current,Civic,,,,PLAN,20210616200717,{8AF4037E-AD63-4B7D-9125-DE465B908CA7},,,,Academic,-123.256712,49.267447
VPOI10292,VAD10479,"Dentistry, Faculty of",,,Woodward - IRC,,faculty/school,,http://www.dentistry.ubc.ca/,Phone: (604) 822-7566; Email: http://www.dentistry.ubc.ca/contact-form/?dept=DMD,,N,UBC,Current,Civic,,,,PLAN,20210616200717,{49C2917F-3BE5-468A-84F8-C4B38A1E02F0},,,,Academic,-123.246729,49.264799
VPOI10295,VAD10282,"Architecture & Landscape Architecture, School of (SALA)",,,Fredric Lasserre Building,,faculty/school,,https://sala.ubc.ca/,Phone: (604) 827-7252,,N,UBC,Current,Civic,,,,PLAN,20210616200717,{8D4F6672-E7DE-4F5E-A9DF-187BCA220A21},,,,Academic,-123.255948,49.267604
VPOI10309,,Stone Garden,Stone Garden,,,garden,garden,,,,,N,UBC,Current,Civic,,RACHELW,20200730232855,PLAN,20210616200717,{5234A87F-AA90-4CC9-B00C-5F5DF3490F2A},,,,,-123.257651,49.266855
VPOI10310,,Dorothy Somerset Grove,Dorothy Somerset Grove,,,garden,garden,,,,,N,UBC,Current,Civic,,RACHELW,20200730232558,PLAN,20210616200717,{DB16D2B0-0D0A-448D-AD3A-B6BAA04E183C},,,,,-123.255791,49.269639
VPOI10409,,St. Andrew's Quad,,,,,park,,,,,N,UNA,Current,Civic,,,,PLAN,20210616200717,{5BDBC9BF-E6B5-4BB5-BF31-BC1C87CC840E},DE5,Sports,,Urban Facilities,-123.251746,49.269956
VPOI10417,VAD11063,UBC Bus Exchange,Diesel Bus Loop,,UBC Exchange,Transit,transit,,,,,N,TransLink,Current,Civic,,,,PLAN,20210616200717,{A191FB2E-99A3-47D2-B6B8-5ED4692D2B7F},,,,,-123.247449,49.267443
VPOI10426,,Khorana Park,Khorana Park,,,garden,park,,http://wesbrook.app2.thoughtshop.com/posts/khorana-park#.VYm4W_m4S70,,,N,UNA,Current,Civic,,,,PLAN,20210616200717,{EDA25446-318E-4BDB-AFEB-5E123072CF70},DE5,Sports,,Urban Facilities,-123.232273,49.255353
VPOI10340,VAD10377,Ceremonies and Events ,UBC Ceremonies & Events,,Ponderosa Office Annex B,,campus_services,,http://ceremonies.ubc.ca/,Phone: (604) 822-2484; Email: ceremonies.office@ubc.ca; Fax: (604) 822-9060,,N,UBC,Current,Civic,,,,RACHELW,20210707194153,{288B7223-CA3D-410E-B19A-EB6908B396CB},,,,Academic,-123.255945,49.264806
VPOI10379,VAD10033,PCS Technologies,"PCS Biofuels, Eve Research, PCI Combustion Tech",,3800 Wesbrook Mall,,commercial_services,,,,,,,Current,Services,,GISSTUD1,20180713172251,RACHELW,20210707194255,{101606F9-20B8-4A1A-81AC-C077EB7DABA1},CO17,Commercial,,Legal Entities,-123.230763,49.250294
VPOI10374,VAD10033,ETC 3 Technology Centre,Emerging Technologies Centre,,3800 Wesbrook Mall,,commercial_services,,,,,,,Current,Services,,GISSTUD1,20180713171359,RACHELW,20210707194256,{2CD07E4E-9548-4465-B479-91C8FFCD1FA0},CO17,Commercial,,Legal Entities,-123.231059,49.250022
VPOI10372,VAD11034,Contextual Genomics Inc.,,,Donald Rix,,commercial_services,,,,,,,Current,Services,,GISSTUD1,20180712230205,RACHELW,20210707194259,{80984EF6-4698-40E0-BCD9-5C37ECC7BFAF},CO17,Commercial,,Legal Entities,-123.246373,49.262142
VPOI10384,VAD10033,Canadian Kailuan Dehua Mines Co. Ltd.,,,3800 Wesbrook Mall,,commercial_services,,https://ckdmines.com/,Phone: (604) 697-9212; Fax: (604) 633-0342; Email: info@ckdmines.com,,,,Current,Services,,GISSTUD1,20180713172055,RACHELW,20210707194302,{10920F70-DEC5-41E5-A57D-3A58C136ED16},CO15,Commercial,,Legal Entities,-123.230914,49.250051
VPOI10438,,Wesbrook Village,Wesbrook Village,,,attraction,commercial_services,,,,,,,Current,Services,,RACHELW,20210621212701,RACHELW,20210707194322,{EEE89095-5CE6-4BBA-B25B-AD960A8B8CE1},,,,,-123.235525,49.254099
VPOI10291,VAD10276,"Forestry, Faculty of",,,Forestry,,faculty/school,,http://www.forestry.ubc.ca/,Phone: (604) 822-2727; Email: for.recep@ubc.ca; Fax: (604) 822-8645,,N,UBC,Current,Civic,,,,RACHELW,20210707194333,{7B827E0B-22C8-4706-A85A-E5D74BFBA108},,,,Academic,-123.248814,49.260474
VPOI10184,,Iona Green,Iona Green,,,garden,garden,,,,,N,UNA,Current,Civic,,,,RACHELW,20210712214414,{88DCAE80-22F4-4F53-B1FA-0BB94C065235},DE5,Sports,,Urban Facilities,-123.250201,49.270668
VPOI10242,VAD10230,"Land and Food Systems, Faculty of",,,MacMillan Building,,faculty/school,,http://www.landfood.ubc.ca/,Phone: (604) 822-1219; Email: lfs.dean@ubc.ca,,N,UBC,Current,Civic,,,,RACHELW,20210707194337,{66970B61-FBF2-4E68-8649-A78A70791729},,,,Academic,-123.251016,49.260978
VPOI10188,,Community Field,Community,,,field,field,,,,,N,UNA,Current,Services,,,,RACHELW,20210707194354,{E0CDABAC-844D-4FAB-8DEB-F3E438D15EC6},DE4,Sports,,Urban Facilities,-123.239032,49.253287
VPOI10202,,David Sidoo Field,David Sidoo,,,field,field,,,,,N,Athletics,Current,Services,,,,RACHELW,20210707194356,{D7E3E574-037B-4358-B45F-450575DE7822},DE4,Sports,,Urban Facilities,-123.24545,49.254495
VPOI10166,,Totem Park,Totem Park,,,garden-l,garden,,https://vancouver.housing.ubc.ca/residences/totem-park/,Phone: (604) 822-3304; Email: information@housing.ubc.ca,,N,UBC,Current,Civic,,,,RACHELW,20210707194437,{772CAD8C-C162-4886-B566-AD4C8CC97465},,,,Academic,-123.254059,49.259503
VPOI10351,,Patient Park,Patient Park,,,garden,garden,,,,,N,UBC,Current,Civic,,,,RACHELW,20210707194439,{AFDA64A1-307D-49A6-80E1-04248C52CBD4},DE5,Sports,,Urban Facilities,-123.246876,49.263741
VPOI10286,VAD11125,Research Ponds,,,UBC Research Ponds,,garden,,,,,N,UBC,Current,Civic,,,,RACHELW,20210707194509,{B8209770-DBE7-4768-BA3B-0E50879E9CC3},,,,,-123.232955,49.247599
VPOI10414,,Yosef Wosk Reflecting Pool,Yosef Wosk Reflecting Pool,,,garden,garden,,,,,N,UBC,Current,Civic,,,,RACHELW,20210707194510,{15860B58-C4AF-4C81-89A7-264AB0244EBF},DE5,Sports,,Urban Facilities,-123.260293,49.269865
VPOI10345,,Sauder Family Garden,,,,,garden,,,,,N,UBC,Current,Civic,,,,RACHELW,20210707194512,{28361191-DFD7-43C4-8BE7-08295BAD0B4B},DE5,Sports,,Urban Facilities,-123.244986,49.264417
VPOI10003,,Totem Field,Totem Field,,,garden-l,garden,,,,,N,UBC,Current,Civic,,,,RACHELW,20210707194517,{8E001D8B-646E-4C2B-BBD4-128D952626A4},DE4,Sports,,Urban Facilities,-123.250139,49.256538
VPOI10355,VAD10080,Cognitive Improvement Centre,,,TEF3,,medical,,,,,,,Current,Civic,,GISSTUD1,20180719175858,RACHELW,20210707194548,{99DA05E9-E9A7-4547-959D-0B4FA93A3F29},ED4,Education,,Urban Facilities,-123.246322,49.261301
VPOI10339,VAD10023,"Centre for Teaching, Learning and Technology (CTLT)",,,Irving K. Barber,,department,,http://ctlt.ubc.ca/,Phone: (604) 827-0360; Email: ctlt.info@ubc.ca; Events: ctlt.events@ubc.ca; Fax: (604) 822-9826,,N,UBC,Current,Civic,,,,RACHELW,20210707211856,{FE577749-BC1E-4677-94A7-53D4FBCED56D},,,,Academic,-123.252633,49.267543
VPOI10418,,Trolley Bus Loop,UBC Loop,,,,transit,,,,,N,TransLink,Current,Civic,,,,RACHELW,20210910001809,{B3367DAD-678D-4DD9-B8F8-A4FB71301867},,,,,-123.248129,49.26581
VPOI10422,,University Golf Club,University Golf Club,,,garden,other,http://pinterest.com/pin/124412008426428017/,http://www.universitygolf.com,Phone: (604) 224-7799; Email: admin@universitygolf.com,,N,UEL,UEL,Services,,,,RACHELW,20210630204917,{B1BEF37E-1880-4C8D-9988-3EB00C44BB60},CO16,Commercial,10-15,Legal Entities,-123.228769,49.263952
VPOI10052,,University Endowment Lands,,UEL,,UEL,other,,,,,N,UEL,UEL,,,,,RACHELW,20210630204921,{4B7C5831-5AE2-444C-AD84-C4464F4EBD0E},,,,,-123.245229,49.270269
VPOI10135,,Regent College,,,Regent College,,commercial_services,,http://www.regent-college.edu/,Phone: (604) 224-3245; Email: admissions@regent-college.edu,,N,UEL,UEL,Services,,,,RACHELW,20210630205155,{1FA44768-B76B-4E08-AB7A-1A1949226087},CI1,Civic,15-20,Legal Entities,-123.244084,49.265675
VPOI10008,,Lutheran Campus Centre,,,,,worship,,,Phone: (604) 224-1614,,N,UEL,UEL,Civic,,,,RACHELW,20210630205438,{E517453C-07E6-4B2B-AF6E-277F23594CC7},CI1,Civic,0-5,Legal Entities,-123.245249,49.266712
VPOI10420,,Thunderbird Park,Thunderbird Park,,Thunderbird Park,garden-l,athletics,,https://sportfacilities.ubc.ca/thunderbird-park/,Phone: (604) 822-6000,,N,Athletics,Current,Services,,,,RACHELW,20210630211353,{1B09085E-C2BA-41DF-B5C7-691BABC73BDE},DE3,Sports,,Urban Facilities,-123.241371,49.258145
VPOI10260,VAD10824,UBC Energy and Water Services,,,Campus Energy Centre,,campus_services,,http://energy.ubc.ca/,Phone: (604) 822-9445,,N,UBC,Current,Civic,,,,RACHELW,20210630211536,{9DCACC31-D564-4E05-9FB3-C226DB0FB931},,,,Academic,-123.245104,49.26165
VPOI10314,VAD10774,UBC Properties Trust,UBC Properties Trust General Office,UBCPT,Wesbrook Professional Centre,,other,,https://www.ubcproperties.com/,Phone: (604) 731-3103,,,,Current,,,GISSTUD1,20180713174847,RACHELW,20210630212517,{D2D4D906-FB6D-4FB4-B74F-306E2E2BA097},,,,,-123.236379,49.254516
VPOI10363,VAD10774,Acts Technologies Inc.,,,Wesbrook Professional Centre,,commercial_services,,,,,,,Current,Services,,GISSTUD1,20180712210235,RACHELW,20210707194246,{465FC5BC-705C-4208-854C-544B15C44B6D},CO17,Commercial,,Legal Entities,-123.236322,49.254458
VPOI10366,VAD10033,Canada Zhonghe Investment Ltd.,,,3800 Wesbrook Mall,,commercial_services,,,,,,,Current,Services,,GISSTUD1,20180713171933,RACHELW,20210707194248,{426C72F1-4DFE-42A2-A57E-460B038EB662},CO15,Commercial,,Legal Entities,-123.230909,49.250052
VPOI10279,VAD10616,Mangrove Water Technologies,,,,,commercial_services,,,,,,,Current,Services,,GISSTUD1,20180712225049,RACHELW,20210707194249,{3ACEA73F-03CF-44E4-B324-C9A3289DDFED},CO17,Commercial,,Legal Entities,-123.249816,49.266553
VPOI10362,VAD10033,Shougang International (Canada) Investment Ltd.,,,3800 Wesbrook Mall,,commercial_services,,,,,,,Current,Services,,GISSTUD1,20180713172012,RACHELW,20210707194251,{5BE6728F-443D-4FC8-AFE4-F46B90DA9A80},CO15,Commercial,,Legal Entities,-123.23091,49.250048
VPOI10278,VAD10033,Frontier Sonde Inc,,,3800 Wesbrook Mall,,commercial_services,,,Phone: (604) 757-3500,,,,Current,Services,,GISSTUD1,20180712211115,RACHELW,20210707194253,{A246F5FF-B8D6-4EAA-B0FE-D96E3F2A44AE},CO17,Commercial,,Legal Entities,-123.230379,49.250177
VPOI10385,VAD10033,Zyme Biotech Inc. ,,,3800 Wesbrook Mall,,commercial_services,,,,,,,Current,Services,,GISSTUD1,20180712231150,RACHELW,20210707194254,{76189D79-1D6C-4C33-B072-AB404EFF37E3},CO17,Commercial,,Legal Entities,-123.230697,49.250303
VPOI10022,VAD10616,Wireless Wave,,,"AMS Nest, Level 1",,retail,,http://www.wirelesswave.ca,,,N,Non-UBC,Current,Retail,,,,RACHELW,20210707192049,{E76A7753-6047-4848-A5AB-E9AECB5FE9B1},CO14,Commercial,0-5,Legal Entities,-123.249918,49.266987
VPOI10361,,Norman MacKenzie Square,Norman MacKenzie Square,,,garden,plaza,,,,,N,UNA,Current,Civic,,RACHELW,20200730233130,RACHELW,20210707192907,{A6611A1D-D87D-4F3B-A812-C311E40B1D6D},DE5,Sports,,Urban Facilities,-123.2354,49.25416
VPOI10421,,Basketball Court,Basketball Court,,,garden,park,,,"Department of Athletics & Rec, Phone: (604) 827-2764; Fax: (604) 822-6011",,N,UNA,Current,Civic,,,,RACHELW,20210707192910,{17D6BD30-E214-490C-9ABA-4DAC69D16179},DE1,Sports,,Urban Facilities,-123.244044,49.260974
VPOI10350,,Koerner Plaza,Koerner Plaza,,,garden,plaza,,,,,N,UBC,Current,Civic,,,,RACHELW,20210707192916,{1D0EFD60-D67B-402F-89A3-E73688EFFA2C},,,,,-123.254633,49.266812
VPOI10144,VAD11122,Roseline Sturdy Amphitheatre,Roseline Sturdy Amphitheatre,,Botanical Garden,garden,plaza,,http://botanicalgarden.ubc.ca/rentals/facilities/roseline-sturdy-amphitheatre/,Phone: (604) 827-3907; Email: garden.programs@ubc.ca,,N,UBC,Current,Civic,,,,RACHELW,20210707193638,{B5F26D78-12CB-4C00-8581-95E7F3D618E3},,,,,-123.24726,49.254511
VPOI10058,,Tower Beach,Tower Beach,,,beach,park,,,,,N,Metro,UEL,Civic,,,,RACHELW,20210707193645,{87527929-2C2B-4AAD-8CA7-BABEF413119F},DE5,Sports,,Urban Facilities,-123.256438,49.27403
VPOI10057,,Pacific Spirit Regional Park,,PSRP,,PSRP,park,,,,,N,Metro,UEL,Civic,,,,RACHELW,20210707193646,{70F5A091-FEA7-4189-B67A-3D67DFB328AB},DE5,Sports,,Urban Facilities,-123.262499,49.265351
VPOI10055,,Pacific Spirit Regional Park,,PSRP,,PSRP,park,,,,,N,Metro,UEL,Civic,,,,RACHELW,20210707193646,{DB93B361-B233-4B2B-9E1F-87EDF321D2ED},,,,,-123.225461,49.251777
VPOI10056,,Wreck Beach,Wreck Beach,,,beach,park,,,,,N,Metro,UEL,Civic,,,,RACHELW,20210707193647,{F348E8EA-0EC4-45ED-AC17-98FD8E712C1D},DE5,Sports,,Urban Facilities,-123.263261,49.268483
VPOI10006,,Rhododendron Wood,Rhododendron Wood,,,garden-l,park,,,,,N,UBC,Current,Civic,,,,RACHELW,20210707193647,{D4180CE1-50C8-4626-B8FE-34B754855D53},DE5,Sports,,Urban Facilities,-123.246862,49.256678
VPOI10205,,Fairview Grove,Fairview Grove,,,garden,park,,,,,N,UBC,Current,Civic,,,,RACHELW,20210707193648,{9BFDEA9E-0773-43E9-AC93-1EBE72726FA4},DE5,Sports,,Urban Facilities,-123.250619,49.262903
VPOI10125,,The Bosque,The Bosque,,,garden,park,,,,,N,UBC,Current,Civic,,,,RACHELW,20210707193649,{46923F7E-8299-49DD-9A58-32EECE15F9D1},,,,,-123.251216,49.26723
VPOI10206,,University Village various venues,,,University Village,,retail,,,,,N,UEL,UEL,Retail,,,,RACHELW,20210707193702,{A01DDBB6-E019-44DD-9E9F-659EED5E845A},,,,,-123.242792,49.266261
VPOI10313,VAD10828,Carey Theological College,Carey Theological College,,Carey Hall (Carey Theological College),,worship,,http://www.carey-edu.ca,Phone: (604) 225-5920; Email: info@carey-edu.ca; Toll-free: 1-844-862-2739,,N,Non-UBC,Current,Civic,,,,RACHELW,20210707193823,{99DCE7D1-8CF3-4ED5-8EC7-2BACE97E3050},ED4,Education,,Urban Facilities,-123.248494,49.271734
VPOI10210,VAD10616,Hatch Art Gallery,,,"AMS Nest, Level 2",,attraction,,http://www.ams.ubc.ca/nest/art-gallery/,,,N,AMS,Current,Civic,,,,RACHELW,20210707193950,{E3F475BD-F6D3-4D9E-8192-5ECA9063DB72},CU3,Cultural,,Urban Facilities,-123.249756,49.266525
VPOI10121,VAD10161,Lobby Gallery,,,Lui Institute for Global Issues,,attraction,,,,,N,UBC,Current,Civic,,,,RACHELW,20210707193959,{44FE5CAC-88C5-40FB-8F86-31BF1ACDD172},CO12,Commercial,0-5,Legal Entities,-123.259288,49.267565
VPOI10263,VAD10840,Undergraduate Student Services,,,Brock Hall,,campus_services,,https://students.ubc.ca/,,,N,UBC,Current,Civic,,,,RACHELW,20210707194101,{50AF1AB6-676C-4EC9-A4A5-57D2D29FB5AA},,,,Academic,-123.252197,49.268632
VPOI10299,VAD10080,Finance,,,TEF3,,campus_services,,https://finance.ubc.ca/,Phone: (604) 822-2187; Email: info.pps@ubc.ca,,N,UBC,Current,Civic,,,,RACHELW,20210707194128,{F61EB24E-AAEC-48F5-8779-BC0885CBE379},,,,Academic,-123.246262,49.261065
VPOI10053,,Wyman Plaza,Wyman Plaza,,,garden,plaza,,,,,N,UBC,Current,Civic,,,,PLAN,20210616200717,{774893D5-B77F-4A92-B845-016107AA90EE},,,,,-123.255102,49.267623
VPOI10054,,Martha Piper Plaza,Martha Piper Plaza,,,garden,plaza,,,,,N,UBC,Current,Civic,,,,PLAN,20210616200717,{93C0C35D-B899-4615-872C-D38E10FB2DC0},,,,,-123.252795,49.264795
VPOI10016,VAD10725,University Fire Hall #10,Fire,,Public Safety,,campus_services,,http://www.vanffcpr.org/location/location.php?id=10,Non Emergency Line (604) 665-6000,,N,Non-UBC,Current,Civic,,,,PLAN,20210616200717,{C0D3FF44-5B5C-4A8D-8EB0-20B0DE650259},CI2,Civic,5-10,Legal Entities,-123.238242,49.2587
VPOI10148,VAD10409,Rose Garden,Rose Garden,,Rose Garden Parkade,garden,garden,http://www.maps.ubc.ca/PROD/images/photos/N014_a.jpg,,<Null>,,N,UBC,Current,Civic,,,,PLAN,20210616200717,{3B66D902-61EF-4DD3-A766-8F619C86BE34},DE5,Sports,,Urban Facilities,-123.256322,49.269159
VPOI10149,VAD11032,Detwiller Pavilion,,,Detwiller Pavilion,,medical,,http://www.vch.ca/Locations-Services/result?res_id=990,Phone: (604) 822-7121; Fax: (604) 822-7653,,N,VCH,Current,Civic,,,,PLAN,20210616200717,{84D4D681-34B4-4DB4-83BD-D270261CB5B0},SD1,Health,,Urban Facilities,-123.244392,49.263549
VPOI10194,VAD10438,St. John Hospice,,,St. John Hospice,,medical,,http://stjohnhospice.ca/,Phone: (604) 806-9686; Email: admin@sosjvancouver.org; Fax: (604) 806-9685,,N,UBC,Current,Civic,,,,PLAN,20210616200717,{E0D956C9-A16B-452C-912F-68AAB22B311A},SD1,Health,,Urban Facilities,-123.247462,49.255457
VPOI10226,,First Tree Plaza,First Tree Plaza,,,garden,garden,,,,,N,UBC,Current,Civic,,RACHELW,20200730232257,PLAN,20210616200717,{50525351-96F7-48DD-AD64-5224D26934CE},,,,,-123.256089,49.266497
VPOI10229,VAD10259,"Audiology & Speech Sciences, School of",,,Friedman Building,,faculty/school,,http://audiospeech.ubc.ca/,Phone: (604) 822-5591; Email: inquiry@audiospeech.ubc.ca; Fax: (604) 822-6569,,N,UBC,Current,Civic,,,,PLAN,20210616200717,{2E36930C-8F95-4C07-8313-3B89F11A61B8},,,,Academic,-123.246244,49.265385
VPOI10230,VAD11052,"Kinesiology, School of",,,War Memorial Gymnasium,,faculty/school,,http://kin.educ.ubc.ca/,Phone: (604) 822-9192; Email: ubc.kin@ubc.ca; Fax: (604) 822-6842,,N,UBC,Current,Civic,,,,PLAN,20210616200717,{26A582A1-AD64-4162-AF5E-237F70428690},,,,Academic,-123.247849,49.266702
VPOI10231,VAD10023,"Library, Archival & Information Studies, School of (iSchool@UBC)",,,Irving K. Barber,,faculty/school,,http://slais.ubc.ca/,Phone: (604) 822-2404; Email: ischool.info@ubc.ca,,N,UBC,Current,Civic,,,,PLAN,20210616200717,{C48C4266-9B95-4DB0-8194-899F2843717E},,,,Academic,-123.252686,49.267529
VPOI10248,VAD11145,YMCA Child Care,YMCA,,Vista Point,,child_care,,https://gv.ymca.ca/Locations/Area-One/UBC/Vista-Point-YMCA-Child-Care,Phone: (604) 320-5818; Email: childcare@gv.ymca.ca; Email: vistapoint@gv.ymca.ca,,Y,Non-UBC,Current,Civic,<Null>,,,PLAN,20210616200717,{1B337C1E-FC47-4B19-BB72-23E63119EC13},BS6,Social welfare,,Urban Facilities,-123.24013,49.261643
VPOI10156,VAD11126,"Nursing, School of",,,UBC Hospital - Koerner Pavilion,,faculty/school,,https://nursing.ubc.ca/,Phone: (604) 822-7417; Email: https://nursing.ubc.ca/questions/contact-us; Fax: (604) 822-7466,,N,UBC,Current,Civic,,,,PLAN,20210616200717,{C0D91878-104E-44CA-866C-D8A06A3D97A5},,,,Academic,-123.245961,49.26413
VPOI10076,VAD10616,The Aviary,,,"AMS Nest, Level 2",,commercial_services,,http://www.facebook.com/aviaryUBC,,,N,AMS,Current,Services,,,,PLAN,20210616200717,{026CC965-90D4-4894-B4EA-EF81C89BCE1E},CO15,Commercial,5-10,Legal Entities,-123.249553,49.26645
VPOI10081,VAD11124,University Hill Secondary School,,,University Hill Secondary School,,school,,http://go.vsb.bc.ca/schools/uhill/Pages/default.aspx,Phone: (604) 713-8258; Fax: (604) 713-8257,,N,VSB,Current,Civic,,,,PLAN,20210616200717,{86737F29-6353-40E3-ABC2-864653A71AE1},ED3,Education,,Urban Facilities,-123.239098,49.254123
VPOI10086,VAD10845,PROTRANS BC Community Arena,,,Doug Mitchell Centre,,athletics,,,,,N,Athletics,Current,Services,,,,PLAN,20210616200717,{DD7ECD96-7E73-4243-95D5-3A020662862D},DE2,Sports,,Urban Facilities,-123.241947,49.260412
VPOI10090,VAD10616,Ph Tea,,,"AMS Nest, Level 1",,cafe,,http://www.ams.ubc.ca/foodanddrink/phtea/,,,N,AMS,Current,Services,,,,PLAN,20210616200717,{BC16939D-BF25-463C-9D75-C61DE31D757A},CO4,Commercial,5-10,Legal Entities,-123.249967,49.266783
VPOI10097,VAD10616,Liquid Nutrition,,,"AMS Nest, Level 1",,cafe,,http://www.liquidnutrition.com/,,,N,Non-UBC,Current,Services,,,,PLAN,20210616200717,{AEA449DA-F506-41F9-B004-5ECE8CC44BB4},CO4,Commercial,5-10,Legal Entities,-123.249769,49.266702
VPOI10138,VAD10412,Building Operations ,,,University Services Building,,campus_services,,http://buildingoperations.ubc.ca/,Phone: (604) 822-2172; Email: servicecentre.buildingops@ubc.ca,,N,UBC,Current,Civic,,,,PLAN,20210616200717,{2E9BFE43-2143-45CF-B180-FC6000C42B47},,,,Academic,-123.253719,49.261289
VPOI10011,,Red Burrito,,,University Village,,cafe,,http://www.redburrito.ca/,Phone: (604) 569-1313,,N,UEL,Retired,,,,,RACHELW,20220125201559,{289824F6-BEEC-4E88-997E-FC23B51ED4F8},CO2,Commercial,10-15,Legal Entities,-123.243211,49.265713
VPOI10012,,Pearl Fever Tea House ,,,University Village,,cafe,,http://www.pearlfever.ca/,Phone: (604) 221-9882,,N,UEL,UEL,Services,,,,RACHELW,20220125201458,{82405A7A-0F07-4F8C-B8A6-CCAA0F9C2796},CO4,Commercial,5-10,Legal Entities,-123.243176,49.26587
VPOI10024,,Starbucks,,,University Village,,cafe,,http://www.food.ubc.ca/place/starbucks/,Phone: (604) 221-0200,M-F: 6 am - 10:30 pm; Sat-Sun: 7 am - 10 pm,N,UEL,UEL,Services,,,,RACHELW,20220125205138,{F2A4C522-5B97-4C4F-BE74-C8B16750B0CF},CO4,Commercial,10-15,Legal Entities,-123.242749,49.26585
VPOI10026,VAD10479,IRC Snack Bar,,,Woodward - IRC,,cafe,,http://www.food.ubc.ca/place/irc-snackbar/,Phone: (604) 822-4291,,N,SHCS,Retired,,,,,RACHELW,20220125202807,{38EFB5E5-04F5-4278-A012-CDFC7CEA18E1},CO4,Commercial,5-10,Legal Entities,-123.247315,49.264666
VPOI10041,VAD10106,Daily Dose Cafe,,,Pharmaceutical Sciences Building,,cafe,,http://www.food.ubc.ca/place/daily-dose/,Phone: (604) 827-1521,,N,SHCS,Retired,,,,,RACHELW,20220125201738,{53D6ACB2-99C5-43C2-89B6-9931288BBB82},CO4,Commercial,0-5,Legal Entities,-123.243047,49.2625
VPOI10025,VAD10490,Law Cafe,,,"Allard Hall, Second floor",,cafe,,http://www.food.ubc.ca/place/law-cafe/,Phone: (604) 827-1524,M-F: 7:30 am - 7:30 pm; Sat-Sun: Closed,N,SHCS,Current,Services,,,,RACHELW,20220125205508,{956F1C39-BFB2-4019-96BD-556649DAFA3E},CO4,Commercial,5-10,Legal Entities,-123.253654,49.269952
VPOI10040,VAD10474,Great Dane Coffee,,,Westpoint,cafe,cafe,,http://www.greatdanecoffee.com/,Phone: (604) 558-2190; Email: andrew@greatdanecoffee.com,M-F: 8 am - 4 pm; Sat-Sun: 9 am - 3 pm,Y,Non-UBC,Current,Services,,,,RACHELW,20220125205443,{37DC4E18-4397-4631-9ED9-C81A9FBAD09D},CO4,Commercial,10-15,Legal Entities,-123.250735,49.270078
VPOI10027,VAD10023,Ike's Cafe,,,Irving K. Barber,cafe,cafe,,http://www.food.ubc.ca/place/ikes/,Phone: (604) 827-3926,"M,Th,F: 6:30 am - 4 pm; Tu-W: 6:30 am - 7:30 pm; Sat-Sun: 6:30am - 9:30am",N,SHCS,Current,Services,,,,RACHELW,20220125211829,{62B02A23-0702-4BCE-9BE7-5B4E46438375},CO4,Commercial,10-15,Legal Entities,-123.252686,49.267234
VPOI10044,,Vera's Burger Shack,,,University Village,,cafe,,http://www.verasburgershack.com/,Phone: (604) 221-8372,Daily: 10:30 am - 10:30 pm,N,UEL,UEL,Services,,,,RACHELW,20220125203340,{8258A070-4A57-41EB-84B9-A7C6DD54416C},CO3,Commercial,10-15,Legal Entities,-123.243271,49.265799
VPOI10045,,Oven Fresh Bakery,,,University Village,,cafe,,,Phone: (604) 222-8886,,N,UEL,Retired,,,,,RACHELW,20220125201604,{7A6B3B77-CE3E-4BDE-9CB6-3606F1B089E3},CO4,Commercial,5-10,Legal Entities,-123.243468,49.266037
VPOI10046,,Agra Tandoori Express,,,University Village,,cafe,,https://agratahttps://agratandooriexpress.ca/,Phone: (604) 225-2288,M-Sat: 11 am - 10 pm; Sun: 11 am - 9 pm,N,UEL,UEL,Services,,,,RACHELW,20220125210533,{BC26F0EF-57F7-4063-835D-1D616F18FB84},CO2,Commercial,5-10,Legal Entities,-123.243445,49.26601
VPOI10042,VAD10100,Bean Around The World,,,Old Barn Community Centre,cafe,cafe,,https://batwcoffee.com/pages/bean-around-the-world-ubc,Phone: (604) 568-8893,Daily: 8 am - 5 pm,Y,Non-UBC,Current,Services,,,,RACHELW,20220125172356,{6B7C2FFD-5573-4A1B-A3AD-406A04374D91},CO4,Commercial,10-15,Legal Entities,-123.248048,49.258854
VPOI10416,VAD10815,Beaty Biodiversity Museum,Beaty Museum,,Beaty Biodiversity Centre,attraction,attraction,http://www.infrastructuredevelopment.ubc.ca/rrs2/photos/314.jpg,http://biodiversity.ubc.ca/,Phone: (604) 822-0862; Email: biodiversity.centre@ubc.ca; Fax: (604) 827-5350,Tu-Sun: 10 am - 5 pm,N,UBC,Current,Civic,,,,RACHELW,20220125212916,{D5508BB2-D633-4195-8CB4-AC19915E5202},CO12,Commercial,10-15,Legal Entities,-123.251062,49.263357
VPOI10043,,Pita Pit,,,University Village,,cafe,,http://pitapit.ca/,Phone: (604) 221-7488; Email: info@pitapit.com; Fax: (604) 221-7487,M-Sat: 10:30 am - 12 am; Sun: 11am - 11 pm,N,UEL,UEL,Services,,,,RACHELW,20220125210903,{8F03320C-B319-4B50-9D27-12288651806B},CO3,Commercial,10-15,Legal Entities,-123.242124,49.26609
VPOI10221,,A&W,,,University Village,,cafe,,http://www.aw.ca/,Phone: (604) 428-0060,24hrs,N,UEL,UEL,Services,,,,RACHELW,20220125204216,{E7A3C60A-99E0-40B7-A05B-1CAD18EC3CF3},CO3,Commercial,10-15,Legal Entities,-123.243437,49.26647
VPOI10013,VAD10064,Running Room,,,Tapestry,,retail,,http://www.runningroom.com/hm/inside.php?id=4442,,,N,Non-UBC,Retired,,,,,RACHELW,20220125201605,{5F62866A-5FD3-4BC1-8547-F939AA19862D},CO14,Commercial,5-10,Legal Entities,-123.235411,49.254953
VPOI10014,VAD10562,Shoppers Drug Mart,,,Strangway,,pharmacy,http://farm2.staticflickr.com/1393/801765508_a8ee553937.jpg,www.shoppersdrugmart.ca/,Phone: (604) 228-1533,Daily: 8 am - 10 pm,Y,Non-UBC,Current,Retail,,,,RACHELW,20220125203457,{5F3342A8-09C0-4B0C-82EC-2E19CA9D141F},CO7,Commercial,15-20,Legal Entities,-123.245811,49.266108
VPOI10015,VAD10724,Royal Canadian Mounted Police,RCMP,,Public Safety,,campus_services,http://ubyssey.ca/wp-content/uploads/2011/06/wpid-RCMP-office_20101003_Colin-Chia.jpg,http://university.bc.rcmp-grc.gc.ca/,Non Emergency Phone: (604) 224-1322; Fax: (604) 224-4759,M-F: 8 am - 4 pm; Sat-Sun: Closed,N,Non-UBC,Current,Civic,,,,RACHELW,20220125205909,{3E6E652D-DAD3-4320-AC47-FE146500134C},CI3,Civic,10-15,Legal Entities,-123.238541,49.25902
VPOI10019,VAD10616,Campus Vision UBC,,,"AMS Nest, Lower Level",,retail,,https://www.campusvision.com/,,,N,Non-UBC,Current,Retail,,,,RACHELW,20220125171948,{B7B657D5-272C-47E1-B563-99B2F39BFE44},CO14,Commercial,0-5,Legal Entities,-123.249824,49.266611
VPOI10048,VAD10197,Mozart School of Music,,,MBA House,,commercial_services,,http://www.msmvan.com/,Phone: (604) 345-9680,,Y,Non-UBC,Current,Services,,,,RACHELW,20220125203615,{0B22B875-45EF-4332-AC4E-2EF9F4BF3F0F},CO15,Commercial,5-10,Legal Entities,-123.235255,49.253713
VPOI10049,VAD10147,UBC Tennis Centre,,,UBC Tennis Centre,,athletics,http://www.infrastructuredevelopment.ubc.ca/rrs2/photos/432.jpg,http://www.recreation.ubc.ca/tennis/,Phone: (604) 822-2505; Email: tennis.centre@ubc.ca,M-F: 8 am - 10 pm; Sat-Sun: 8 am - 10 pm,N,Athletics,Current,Services,,,,RACHELW,20220125205756,{E53164C4-BA70-44E1-934E-99BBDDAEBE3C},CO16,Commercial,5-10,Legal Entities,-123.244938,49.259754
VPOI10050,VAD10100,Old Barn Community Centre Exercise Room,,,Old Barn Community Centre,,athletics,http://www.oldbarn.ca/wp-content/uploads/Gym5858.jpg,https://wearecommunityvan.ca/,reception@oldbarn.ca</br>Phone: (604) 827-4469,Daily: 8:30 am - 10 pm,N,UNA,Current,Services,,,,RACHELW,20220125172620,{A90505AF-E471-4E96-944A-B0190517B9C1},CO16,Commercial,0-5,Legal Entities,-123.248394,49.259014
VPOI10280,VAD10865,Nobel Biocare Oral Health Centre,Nobel Biocare,,David Strangway,,commercial_services,,http://www.dentistry.ubc.ca/the-nobel-biocare-oral-health-centre/,Phone: (604) 822-2112; Fax: (604) 822-3708,M-F: 8 am - 12:30 pm & 2 pm - 5 pm; Tu/Th: 6 pm - 9 pm; Sat: 9 am - 12 pm,N,UBC,Current,Services,,,,RACHELW,20220125205852,{1721B4C3-3AB3-49D7-B257-567188D1179D},SD2,Health,,Urban Facilities,-123.245555,49.265894
VPOI10051,VAD11023,Dental Speciality Clinics,,,J.B. Macdonald Building,,campus_services,,https://www.dentistry.ubc.ca/about-us/contact-us/,Phone: (604) 822-2112 ; Fax: (604) 822-3708,,N,UBC,Current,Civic,,,,RACHELW,20220125172529,{E9878400-D207-4B0C-AC30-7FB20639364E},SD2,Health,,Urban Facilities,-123.245464,49.265607
VPOI10383,VAD11126,UBC Hospital,UBC Hospital,,Koerner Pavilion,,hospital,http://www.infrastructuredevelopment.ubc.ca/rrs2/photos/463.jpg,http://www.vch.ca/Locations-Services/result?res_id=652,Phone: (604) 822-7121; Fax: (604) 822-7653,Daily: 8 am - 10 pm,N,VCH,Current,Civic,,,,RACHELW,20220125203457,{4B659824-014D-44C4-9060-4A02C361FCE5},SD1,Health,,Urban Facilities,-123.245771,49.264197
VPOI10028,VAD11126,Student Health Services,,,UBC Hospital - Koerner Pavilion,,campus_services,,https://students.ubc.ca/health-wellness/student-health-service,Phone: (604) 822-7011; Email: student.health@ubc.ca; Fax: 1 855 822-7212,"M-W,Fri: 8 am - 4 pm; Th: 9 am - 4 pm; Sat-Sun: Closed",N,UBC,Current,Civic,,,,RACHELW,20220125212454,{1CC900B4-A8A5-4D7B-BA97-4D7C24CE04FA},SD1,Health,,Urban Facilities,-123.245718,49.263984
VPOI10017,VAD10221,Togo Sushi,,,MBA House,,cafe,,http://www.togosushi.ca/ubc.html,Phone: (604) 222-9288,M-Sat: 11 am - 8 pm; Sun: 12 - 8pm,Y,Non-UBC,Current,Services,,,,RACHELW,20220125211549,{F7D6F84D-E989-4212-B878-5824F7B4681B},CO2,Commercial,10-15,Legal Entities,-123.235374,49.253988
VPOI10047,VAD11068,More Bikes,,,The Mews,,retail,,http://www.morebikes.ca/,Phone: (604) 558-1528,M-Sat: 10 am - 6 pm; Sun: 11 am - 5 pm,Y,Non-UBC,Current,Retail,,,,RACHELW,20220125210516,{0E30F013-7F82-4BDA-BF20-F96FEF6EE2D6},CO14,Commercial,5-10,Legal Entities,-123.235877,49.254466
VPOI10302,VAD10616,The Pride Collective,UBC Pride,,"AMS Nest, Level 2",,campus_services,,https://www.prideubc.com/,Email: prideubc@gmail.com,,N,UBC,Current,Civic,,GISSTUD1,20180116231731,RACHELW,20220125202037,{7A883A55-0ADE-4CE9-AD28-0C2C9A15EB5D},BS4,Social welfare,,Urban Facilities,-123.249865,49.266446
VPOI10029,VAD10069,Wesbrook Village Dental Ctr,,,Tapestry,,commercial_services,,http://www.wesbrookvillagedental.com/,Phone: (604) 221-7600; Email: info@wesbrookvillagedental.com,"M-Tu,Th: 8:30 am - 5 pm; Wed: 9 am - 6 pm; Fri: 7:30 am - 2 pm; Sat/Sun: Clos",Y,Non-UBC,Current,Services,,,,RACHELW,20220125212431,{495F81CE-F541-42DC-BE3C-2BA725C82928},SD2,Health,,Urban Facilities,-123.235294,49.25476
VPOI10030,VAD11083,Graduate and Postdoctoral Studies,,,Thea Koerner House,,faculty/school,,https://www.grad.ubc.ca/,Phone: (604) 822-2848; Fax: (604) 822-5802,M-F: 8:30 am to 4 pm; Sat-Sun: Closed,N,UBC,Current,Civic,,,,RACHELW,20220125205722,{13081F70-7F1E-4902-A996-86A368C29BA0},,,,Academic,-123.257877,49.268419
VPOI10060,,Pacific Spirit Dental,,,University Village,,medical,,http://www.pacificspiritdental.ca/,Phone: (604) 224-2411,M-Th: 8 am - 5 pm; Fri-Sun: Closed,N,UEL,UEL,Civic,,,,RACHELW,20220125210704,{CDB9BF92-DF4A-445E-BB76-D877C99F7185},SD2,Health,,Urban Facilities,-123.242825,49.265955
VPOI10303,VAD10100,Old Barn Community Centre,,,Old Barn Community Centre,,campus_services,,https://www.myuna.ca/recreation/,Phone: (604) 827-4469,Daily: 7 am - 7 pm,,,Current,Civic,,GISSTUD1,20180117190927,RACHELW,20220125175453,{0048CC7B-47BE-454A-B3A2-C48A0D88F8BF},CU1,Cultural,,Urban Facilities,-123.248329,49.258927
VPOI10061,VAD11083,Graduate Student Society,,,Thea Koerner House,,campus_services,,https://gss.ubc.ca/,Phone: (604) 822-3203; Email: info@gss.ubc.ca,M-W: 9 am - 5 pm; Th: 10 am - 4 pm; Fri: 9 am - 5 pm,N,UBC,Current,Civic,,,,RACHELW,20220125211611,{5FCB3108-ED75-4F8B-BA78-521447673A71},,,,Academic,-123.257836,49.26837
VPOI10316,VAD11044,The Eatery,,,Engineering Student Centre,,cafe,,https://ubcengineers.ca/eatery/,Email: eatery@ubcengineers.ca,M-F: 9:30 am - 3 pm; Sat-Sun: Closed,N,,Current,Services,,GISSTUD1,20180718230428,RACHELW,20220125212212,{C4E681BB-38D2-415F-9943-30DD3D3E831E},CO4,Commercial,5-10,Legal Entities,-123.249216,49.262228
VPOI10062,VAD10210,Ponderosa Commons Residence Front Desk,Front Desk,,Ponderosa Commons,Front Desk,housing_student,,http://vancouver.housing.ubc.ca/residences/ponderosa-commons/,Phone: (604) 822-2708; Email: yearround@housing.ubc.ca,,N,SHCS,Current,Anchor,,,,RACHELW,20220125201736,{DA2E8B87-E876-4A3B-AB9E-18C8967F8B90},,,,Academic,-123.255454,49.26423
VPOI10063,VAD10138,Kids Club Child Care,Kids Club,,Kids Club,,child_care,,https://childcare.ubc.ca/,Phone: (604) 822-5343; Email: childcare@housing.ubc.ca; Fax: (604) 822-9195,,N,SHCS,Current,Civic,<p>Kids Club Child Care Services Centre</p>,,,RACHELW,20220125201738,{DA9C668E-C6DB-410E-BD7A-1381D75CC9CC},BS6,Social welfare,,Urban Facilities,-123.234812,49.26173
VPOI10064,VAD11146,Humanities & Social Sciences,,,Walter C. Koerner Library,,library,http://www.infrastructuredevelopment.ubc.ca/rrs2/photos/515-1.jpg,http://www.library.ubc.ca/koerner,Information Desk: (604) 822-2725; Email: hssd.library@ubc.ca,M-Th: 8 am - 8 pm; Fri: 8 am - 5 pm; Sat:10 am - 5 pm; Sun: Closed,N,Library,Current,Civic,,,,RACHELW,20220125210638,{AD7BB9F3-24EC-48EF-9C42-BC0DBAA624AD},,,,Academic,-123.255131,49.266655
VPOI10065,VAD11146,Microforms & Journals ,,,Walter C. Koerner Library,,library,http://www.infrastructuredevelopment.ubc.ca/rrs2/photos/515-1.jpg,http://www.library.ubc.ca/koerner,Information Desk: (604) 822-2725; Email: hssd.library@ubc.ca,M-Th: 8 am - 8 pm; Fri: 8 am - 5 pm; Sat:10 am - 5 pm; Sun: Closed,N,Library,Current,Civic,,,,RACHELW,20220125210639,{BA568A75-8108-45E7-AF33-981297BD70D0},,,,Academic,-123.255131,49.266655
VPOI10000,VAD10226,Xerox Canada,,,Granite Terrace Office,,commercial_services,,http://www.xeroxprintservicesubc.ca/,Phone: (604) 221-4244; Email: dms@xerox.com,M-F: 7:30 am - 5 pm; Sat-Sun: Closed,Y,Non-UBC,Current,Services,,,,RACHELW,20220125205509,{B9314A24-A157-4C3A-A81E-C57F1BCEFF80},,,,,-123.236151,49.255106
VPOI10001,VAD10127,Green College Front Desk,,,Green College,Front Desk,housing_student,,http://www.greencollege.ubc.ca/,Phone: (604) 822-8660; Email: gc.reception@ubc.ca; Fax: (604) 822-8742,M-F: 9 am - 12 pm & 1 pm - 4 p m; Sat-Sun: Closed,N,SHCS,Current,Anchor,,,,RACHELW,20220125213150,{8059EC2C-EE73-4478-8CF1-02458425F86E},,,,Academic,-123.256407,49.270922
VPOI10059,VAD11031,Family Practice Teaching Unit/Clinic,,,David Strangway,,campus_services,,http://clinic.familymed.ubc.ca/,Phone: (604) 822-5431; Email: family.clinic@familymed.ubc.ca; Fax: (604) 822-4089,M-F: 9 am - 5 pm; Sat-Sun: Closed,Y,Non-UBC,Current,Civic,,,,RACHELW,20220125210152,{A122A0A9-0F78-48D6-ADDF-CE2B4138962A},SD2,Health,,Urban Facilities,-123.246341,49.265908
VPOI10066,VAD10063,Owl Child Care,Owl,,The Barn,,child_care,,https://childcare.ubc.ca/,Phone: (604) 822-5343; Email: childcare@housing.ubc.ca; Fax: (604) 822-9195,,N,SHCS,Current,Civic,<p>Owl at the Barn Child Care Services Centre</p>,,,RACHELW,20220125201738,{A3B3F504-0D0C-4136-AA99-72F3DAB5A3B9},BS6,Social welfare,,Urban Facilities,-123.251184,49.262006
VPOI10002,VAD10103,Orchard Commons Residence Front Desk,Front Desk,,Orchard Commons,Front Desk,housing_student,,http://vancouver.housing.ubc.ca/residences/orchard-commons/,Email: information@housing.ubc.ca,,N,SHCS,Current,Anchor,,,,RACHELW,20220125201737,{DEEA5DB0-266B-40C2-BDCA-AFBCB2484959},,,,Academic,-123.250932,49.260072
VPOI10322,VAD10364,Place Vanier Residence Front Desk,Front Desk,,Place Vanier Residence  ,Front Desk,housing_student,,http://vancouver.housing.ubc.ca/residences/place-vanier/,,,N,SHCS,Current,Anchor,,,,RACHELW,20220125201737,{6BBF59D3-7831-449A-ACB4-4A59CBFD43AE},,,,Academic,-123.258395,49.264747
VPOI10304,VAD10781,Wesbrook Community Centre,,,Wesbrook Community Centre,,campus_services,,https://www.myuna.ca/,Phone: (604) 822-4227,M-Th: 8:30 am - 10 pm; Fri: 8:30 am - 8:30 pm; Sat-Sun: 8:30 am - 6 pm,,,Current,Civic,,GISSTUD1,20180117190927,RACHELW,20220125210628,{CEBB606B-A92E-4A88-A5D6-8A97A662779E},CU1,Cultural,,Urban Facilities,-123.237509,49.25402
VPOI10305,VAD10491,BC Ambulance Service Station 262,BC Ambulance Service,,Ambulance Station,,campus_services,,,,24hrs,,,Current,Civic,,GISSTUD1,20180117190927,RACHELW,20220125204252,{AD5ADFBE-1BBB-4FCD-81CB-CF4AA2C84F2B},CI4,Civic,10-15,Legal Entities,-123.243553,49.263274
VPOI10406,,Acadia Park Playground,Playground,,,garden,park,,,,,N,SHCS,Current,Civic,,,,RACHELW,20220125201738,{CDC6210E-0C4C-40F3-ABFB-E3C9E8B6A4F1},DE5,Sports,,Urban Facilities,-123.238065,49.262937
VPOI10282,VAD10860,UBC Parking Impound Lot,,,2451 East Mall at Sopron Lane,,campus_services,,https://parking.ubc.ca/impounded-vehicles,Phone: (604) 827-4042,24hrs,N,Parking,Current,Civic,,,,RACHELW,20220125204238,{FA5732BB-85DD-445A-9B40-B970A618FCD2},,,,,-123.24658,49.260421
VPOI10136,VAD10616,Honour Roll,Honour Roll Sushi,,"AMS Nest, Level 1",,restaurant,,http://www.food.ubc.ca/place/peko-peko/,Phone: (604) 827-5589,M-F: 11 am - 3:30 pm; Sat-Sun: Closed,N,AMS,Current,Services,,,,RACHELW,20220125204922,{28ABA3B5-8865-4A64-8C0D-AABAEA688705},CO2,Commercial,10-15,Legal Entities,-123.250198,49.266892
VPOI10139,VAD10841,Arts Academic Advising,,,Buchanan Building,,campus_services,,http://students.arts.ubc.ca/advising/,Phone: (604) 822-4028; Email (Aboriginal Students): arts.aboriginal@ubc.ca; Fax: (604) 822-4923,M-F: 9 am - 4:30 pm; Sat-Sun: Closed,N,UBC,Current,Civic,,,,RACHELW,20220125213142,{FA3459A2-F646-4A85-8EC3-4DE701C1AC82},,,,Academic,-123.254213,49.2693
VPOI10306,VAD10106,Pharmacists Clinic,,,Pharmaceutical Sciences Building,,medical,,https://pharmsci.ubc.ca/pharmacists-clinic,,M-F: 9 am - 4 pm; Sat-Sun: Closed,,,Current,Civic,,GISSTUD1,20180117190435,RACHELW,20220125213148,{BB0628E9-5D5B-4F63-9347-3D18D9F726F5},SD2,Health,,Urban Facilities,-123.243073,49.262413
VPOI10137,VAD10831,Campus Security (Lost and Found),Campus Security,,UBC Bookstore,service,campus_services,http://www.infrastructuredevelopment.ubc.ca/rrs2/photos/337.jpg,http://www.security.ubc.ca/,Phone: (604) 822-2222,M-F: 8:30 am - 5 pm; Sat-Sun: Closed,N,UBC,Current,Civic,,,,RACHELW,20220125211018,{00DCD2A0-0644-4E24-A3C1-BA8EBB9AFDCF},,,,Academic,-123.25026,49.265013
VPOI10140,VAD10889,Campus Sustainability Office,,,Centre for Interactive Research on Sustainability,,campus_services,,https://sustain.ubc.ca/,Phone: (604) 822-9376; Email: usi.office@ubc.ca,M-F: 8:30 am - 5 pm; Sat-Sun: Closed,N,UBC,Current,Civic,,,,RACHELW,20220125205643,{97EF4378-2411-4F22-98D1-324961E2B903},,,,Academic,-123.25311,49.262049
VPOI10141,VAD10616,Iwana Taco,,,"AMS Nest, Lower Level",,cafe,,http://www.ams.ubc.ca/foodanddrink/flipside/,Phone: (604) 822-0134; Email: flipside@ams.ubc.ca,,N,AMS,Retired,,,,,RACHELW,20220125201607,{254D5098-C6D5-4273-853E-D47164F61302},CO2,Commercial,10-15,Legal Entities,-123.250027,49.266857
VPOI10068,VAD11148,UBC Conferences & Accommodation,Conferences Accommodation,,Walter Gage Residence,service,commercial_services,http://www.infrastructuredevelopment.ubc.ca/rrs2/photos/872-2.jpg,http://www.ubcconferences.com/,Phone: (604) 822-1060; Email: conferences@housing.ubc.ca; Fax: (604) 822-1001,,N,SHCS,Current,Services,,,,RACHELW,20220125201735,{190A6995-0BAD-489B-B989-204BF8E14992},,,,,-123.248693,49.269356
VPOI10069,VAD10455,Birdcoop Fitness Center,,,Student Recreation Centre,,athletics,http://www.infrastructuredevelopment.ubc.ca/rrs2/photos/774.jpg,http://www.recreation.ubc.ca/fitness/,Phone: (604) 822-6924; Email: birdcoop.fitnesscentre@ubc.ca,M-F: 6:30 am - 11 pm; Sat-Sun: 9 am - 10 pm,N,Athletics,Current,Services,,,,RACHELW,20220125203332,{AE79F04A-4306-4184-AB3E-4FC56E019209},CO16,Commercial,10-15,Legal Entities,-123.248788,49.268359
VPOI10070,VAD10120,Blenz,,,MBA House,,cafe,,https://blenz.com/locations/?store_id=56,Phone: (604) 568-2660,M-Th: 6:30 am - 10 pm; Fri: 6:30 am - 9:30 pm; Sat-Sun: 7 am - 9:30 pm,Y,Non-UBC,Current,Services,,,,RACHELW,20220125211222,{84594E42-5697-4297-B826-7DF556F8D721},CO4,Commercial,10-15,Legal Entities,-123.235083,49.254027
VPOI10222,,Blenz,,,University Village,,cafe,,http://blenz.com/,Phone: (604) 559-2618,,N,UEL,Retired,,,,,RACHELW,20220125201609,{CBB16FBB-A738-4D37-9888-14FDA5A40644},CO4,Commercial,10-15,Legal Entities,-123.243576,49.266456
VPOI10360,VAD10436,St. Andrew's Hall,,,St. Andrew's Hall,,worship,,http://www.standrews.edu/,Phone: (604) 822-9720; Email: bpaul@standrews.edu,M-F: 9 am - 5 pm; Sat-Sun: Closed,N,Non-UBC,Current,Civic,,,,RACHELW,20220125210147,{C5AC2B4C-6144-49D7-ACC3-4F8FB76D7E6B},CI1,Civic,5-10,Legal Entities,-123.251896,49.270357
VPOI10216,VAD10128,Nitobe Memorial Garden,,,Nitobe Garden,garden,garden,http://www.infrastructuredevelopment.ubc.ca/rrs2/photos/476.jpg,http://www.botanicalgarden.ubc.ca/nitobe,Phone: (604) 822-6038; Email: garden.nitobe@ubc.ca,W-Sun: 10 am - 2 pm (Oct-Mar); W-Sun: 10 am - 5 pm (Apr-Sept);,N,UBC,Current,Civic,,,,RACHELW,20220125212135,{A1A19D09-2848-44D9-A9FA-33CDE1564FA4},CO12,Commercial,0-5,Legal Entities,-123.259681,49.266386
VPOI10423,VAD11040,Pacific Museum of the Earth,Pacific Museum,,Earth and Ocean Sciences  - Main,attraction,attraction,http://www.infrastructuredevelopment.ubc.ca/rrs2/photos/402.jpg,http://www.eos.ubc.ca/resources/museum/,pme@eos.ubc.ca</br>Phone: (604) 822-6992 ,M-F: 9 am - 5 pm; Sat-Sun: Closed,N,UBC,Current,Civic,,,,RACHELW,20220125210153,{0B417750-07F3-441F-B405-A7A140C91348},CO12,Commercial,5-10,Legal Entities,-123.252256,49.262642
VPOI10072,VAD10178,Morris and Helen Belkin Art Gallery,,,Morris and Helen Belkin Art Gallery,,attraction,http://www.infrastructuredevelopment.ubc.ca/rrs2/photos/568.jpg,http://belkin.ubc.ca,Email: belkin.gallery@ubc.ca</br>Phone: (604) 822-2759,Tu-F: 10 am - 5 pm; Sa-Su: 12 pm - 5 pm; M: Closed ,N,UBC,Current,Civic,,,,RACHELW,20220125204448,{CCB99D88-0F4E-4B62-A2FC-F0C4F13F125C},CO12,Commercial,5-10,Legal Entities,-123.256166,49.268136
VPOI10142,VAD10774,Hot Box Yoga,,,Wesbrook Professional Centre,,commercial_services,,http://www.thehotboxyoga.com/,Phone: 1-844-484-9642; Email: info@thehotboxyoga.com,,Y,Non-UBC,Current,Services,,,,RACHELW,20220125174109,{E00BE9B2-CA37-45F4-8FF4-0A1CBB849D1E},CO16,Commercial,5-10,Legal Entities,-123.236409,49.254474
VPOI10223,,International Food Court,,,University Village,,cafe,,,,Daily: 10 am - 10 pm,N,UEL,UEL,Services,,,,RACHELW,20220125210610,{EE532DE8-A6D9-462E-A8D1-C1261E530E76},CO2,Commercial,10-15,Legal Entities,-123.242809,49.266633
VPOI10283,VAD10224,Thunderbird Arena,Arena,,Doug Mitchell Centre,,athletics,,https://thunderbirdarena.ubc.ca/,Phone: (604) 822-6121; Email: ice.rink@ubc.ca,M-F: 9 am - 5 pm; Sat-Sun: Closed,N,Athletics,Current,Services,,,,RACHELW,20220125210149,{111EDCCD-E285-457C-B5F5-0557443583A8},DE3,Sports,,Urban Facilities,-123.241688,49.259933
VPOI10315,VAD10364,Gather,,,Place Vanier Residence,,restaurant,,http://www.food.ubc.ca/place/vaniers-dining-room/,Phone: (604) 822-2622,"M-F: 7 am - 2 pm, 3 pm - 9 pm; Sat-Sun: 8 am - 2 pm, 3 pm - 9 pm",N,SHCS,Current,Services,,,,RACHELW,20220125205347,{464B9670-2461-45B5-BED6-E868EB14833E},CO2,Commercial,15-20,Legal Entities,-123.258773,49.264669
VPOI10023,,Hannah and Samuel Flower Shop,,,University Village,,commercial_services,,http://www.hsflowers.ca/,Phone: (604) 228-0113,M-F: 9:30 am - 6:30 pm; Sat: 10 am - 6 pm; Sun: Closed,N,UEL,UEL,Services,,,,RACHELW,20220125210116,{BCFD2C0A-F37C-4E19-AE77-2548C744EC5F},CO14,Commercial,0-5,Legal Entities,-123.243636,49.266226
VPOI10143,VAD10567,The Original Beanery,,,Fairview Crescent Residence,,cafe,,,Phone: (604) 224-2326,M-Th: 7:30 am - 9 pm; Fri: 7:30 am - 7 pm; Sat-Sun: 8:30 am - 7 pm,Y,Non-UBC,Current,Services,,,,RACHELW,20220125211302,{5C2BF04C-7397-4C25-80BD-BB821D5A78A6},CO4,Commercial,5-10,Legal Entities,-123.239468,49.263599
VPOI10145,VAD10219,Rain or Shine,Rain or Shine Ice Cream,,Central,,cafe,,http://rainorshineicecream.com/,Phone: Needs Updating; Email: human@rainorshineicecream.com,Daily: 12 pm - 10 pm,Y,Non-UBC,Current,Services,,,,RACHELW,20220125203438,{4BF7829B-8D73-4A53-8E32-808A15889B48},CO1,Commercial,5-10,Legal Entities,-123.246875,49.266422
VPOI10284,VAD10128,Tea House,Nitobe Garden,,Nitobe Garden,,garden,,,,,N,UBC,Current,Civic,,,,RACHELW,20220125191721,{45F6BBB2-E357-44CB-9DA2-48CB70AED4D1},,,,,-123.259098,49.266185
VPOI10415,VAD11122,Taylor Learning Plaza,Taylor Plaza,,Botanical Garden,garden,plaza,,,,,N,UBC,Current,Civic,,,,RACHELW,20220126210751,{2C705B03-08F1-471D-9B4C-3FAD8845E593},,,,,-123.24679,49.252955
VPOI10386,VAD11122,UBC Botanical Garden and Centre for Plant Research,Botanical Garden,,Botanical Garden,,garden,http://www.infrastructuredevelopment.ubc.ca/rrs2/photos/097.jpg,http://www.botanicalgarden.ubc.ca/centre-for-plant-research,Phone: (604) 822-4208; Email: garden.info@ubc.ca,Daily: 9:30 am - 4:30 pm; Summer Thurs: 9:30 am - 8 pm,N,UBC,Current,Civic,,,,RACHELW,20220125204713,{6D5DC6B4-72E6-431E-A3EC-D46B8079B053},,,,,-123.249738,49.253233
VPOI10425,VAD10091,Nori,,,Central,,cafe,,https://www.facebook.com/pg/noriubc/about/?ref=page_internal,,M-Sat: 11 am - 7 pm; Sun: Closed,Y,Non-UBC,Current,Services,,,,RACHELW,20220125210539,{4DD512C1-7BC5-4F4B-A0C6-4BA81C0FCFE3},CO2,Commercial,10-15,Legal Entities,-123.247587,49.266199
VPOI10034,VAD10220,JJ Bean,JJ Bean Coffee,,Central,,cafe,,https://jjbeancoffee.com/our-locations/ubc/,Phone: (604) 559-9252; Email:  info@jjbeancoffee.com,M-F: 7 am - 8 pm; Sat-Sun: 8 am - 6 pm,Y,Non-UBC,Current,Services,,,,RACHELW,20220125205147,{C749D6A9-B7AC-42CF-9C58-16ED42FDC561},CO4,Commercial,10-15,Legal Entities,-123.246873,49.266293
VPOI10035,VAD10094,Jamjar,Jamjar Canteen,,Central,,cafe,,http://www.jam-jar.ca/,Phone: (604) 620-5320,Daily: 11:30 am - 10 pm; Closed Holidays,Y,Non-UBC,Current,Services,,,,RACHELW,20220125203414,{47EE5981-2D2D-41F1-BD60-4CF5B4025C81},CO2,Commercial,10-15,Legal Entities,-123.247143,49.266255
VPOI10036,VAD10092,Tacomio,,,Central,,cafe,,http://www.tacomio.ca/,Phone: (604) 288-9511,Daily: 11 am - 8 pm,Y,Non-UBC,Current,Services,,,,RACHELW,20220125203425,{8AA181CB-4837-42D9-B541-4AF638E72B91},CO2,Commercial,10-15,Legal Entities,-123.247244,49.266242
VPOI10037,VAD11103,Corner Store,,,UBC Bookstore,,minimart,,https://food.ubc.ca/places/corner-store/,Phone: (604) 822-2665,Daily: 10 am - 5 pm,N,SHCS,Current,Food,,,,RACHELW,20220125203345,{30FE8410-E335-4F5C-81FF-6B3096097F7B},CO10,Commercial,0-5,Legal Entities,-123.250785,49.265213
VPOI10039,VAD11103,Starbucks,Starbucks Bookstore,,UBC Bookstore,cafe,cafe,,http://www.food.ubc.ca/place/starbucks/,Phone: (604) 822-0552,M-F: 6 am - 6 pm; Sat: 9:30 am - 5:30 pm; Sun: Closed,N,SHCS,Current,Services,,,,RACHELW,20220125205115,{EC2F8E91-E17E-4AA7-A6AC-F9450786C159},CO4,Commercial,10-15,Legal Entities,-123.25103,49.265105
VPOI10067,VAD11083,Koerner's Pub,,,Thea Koerner House,,restaurant,,http://koerners.ca/,Phone: (604) 827-1443; Email: info@koerners.ca,M-W: 12 pm - 7pm; Th-Fri: 12 pm - 10 pm; Sat-Sun: 12 pm - 7 pm,Y,Non-UBC,Current,Services,,,,RACHELW,20220125211606,{5D1336D9-17DA-4687-9317-3CF51760BEFF},CO6,Commercial,15-20,Legal Entities,-123.258074,49.268314
VPOI10099,VAD10276,Tim Hortons,,,Forest Sciences Centre,cafe,cafe,,http://www.food.ubc.ca/place/tim-hortons/,Phone: (604) 822-1953,M-F: 7 am - 6 pm; Sat-Sun: Closed ,N,SHCS,Current,Services,,,,RACHELW,20220125205408,{9B07E362-B46E-4B61-8109-1AD00322551E},CO4,Commercial,10-15,Legal Entities,-123.248458,49.260271
VPOI10100,VAD10169,Harvest,,,Ponderosa Commons Oak House,,minimart,,http://www.food.ubc.ca/place/harvest/,Phone: (604) 827-3007,Daily: 7 am - 10 pm,N,SHCS,Current,Food,,,,RACHELW,20220125212222,{B409A3D5-C316-4060-ACE5-F86EC20D04E1},CO9,Commercial,10-15,Legal Entities,-123.255742,49.263983
VPOI10431,VAD11148,West Coast Suites,Check-in,,Walter Gage Residence,,campus_services,,http://suitesatubc.com/accommodations/west-coast-suites/,Phone: (604) 395-2540; Email: reservations@housing.ubc.ca; Fax: (604) 822-1001,,N,SHCS,Current,Civic,,,,RACHELW,20220125201737,{2EF1F6BB-FA3D-49F6-B0C3-37469D695881},CO11,Commercial,10-15,Legal Entities,-123.248557,49.269554
VPOI10101,VAD11103,UBC Bookstore,,,Bookstore,,retail,http://www.infrastructuredevelopment.ubc.ca/rrs2/photos/081.jpg,http://www.bookstore.ubc.ca/home,Phone: 1 800 661-3889,M-F: 10 am - 5 pm; Sat: 10 am - 5 pm; Sun: Closed,N,UBC,Current,Retail,,,,RACHELW,20220125204836,{4C6A9126-866C-47AF-A09E-DCC2F7E2EDEE},CO14,Commercial,15-20,Legal Entities,-123.250582,49.265281
VPOI10102,VAD10075,Insure BC,,,Tapestry,,commercial_services,,http://www.insurebc.ca/,Phone: (604) 221-7080; Fax: (604) 221-7082,M-F: 9 am - 6 pm; Sat: 10 am - 6 pm; Sun: Closed,Y,Non-UBC,Current,Services,,,,RACHELW,20220125210327,{777386E5-2569-4FB9-87AC-1D3260D79EA7},CO15,Commercial,5-10,Legal Entities,-123.235364,49.254845
VPOI10103,VAD10073,liane Hair & Spa,,,Tapestry,,commercial_services,,http://www.elianehairspa.ca/,Phone: (604) 225-5007,Tu-Sat: 10 am - 6 pm; Sun-M: Closed,Y,Non-UBC,Current,Services,,,,RACHELW,20220125212912,{EFFB852F-CEAB-4A93-AA43-32E0EBE35D5A},CO15,Commercial,5-10,Legal Entities,-123.234883,49.25452
VPOI10104,VAD10067,University Barbershop,,,The Mews,,commercial_services,,http://www.theuniversitybarbershop.com/,Phone: (604) 428-3800; Email: info@theuniversitybarbershop.com,W-Sat: 10 am - 6 pm; Th-Fri: 10 am - 8 pm,Y,Non-UBC,Current,Services,,,,RACHELW,20220125213302,{9A8DB459-491E-4A20-BBF0-7A2175E71727},CO15,Commercial,0-5,Legal Entities,-123.235584,49.254647
VPOI10285,VAD10606,Save-On-Foods,,,Granite Terrace,,grocery,,http://www.saveonfoods.com/store/ubc,Phone: (604) 221-5999,Daily: 7 am - 10 pm,Y,Non-UBC,Current,Food,,,,RACHELW,20220125203444,{734DB7FD-D45F-4DEE-83C6-D4E410AD73E8},CO9,Commercial,15-20,Legal Entities,-123.236554,49.254766
VPOI10105,VAD10616,Grocery Checkout,,,"AMS Nest, Level 1",,grocery,,http://www.facebook.com/GCIVancouver,Phone: (778) 654-4900,M-F: 8:30 am - 7 pm; Sat-Sun: 10 am - 5 pm,N,Non-UBC,Current,Food,,,,RACHELW,20220125205739,{688ABDC9-CFA8-4F98-8BEE-E65A4AEF3686},CO9,Commercial,5-10,Legal Entities,-123.249311,49.26628
VPOI10106,VAD10061,Wesbrook Cleaners,,,The Mews,,commercial_services,,http://www.discoverwesbrook.com/posts/wesbrook-cleaners#.WWPJvojyvcs,Phone: (604) 732-9020,M-F: 10 am - 5 pm; Sat: 10 am - 4 pm; Sun: Closed,Y,Non-UBC,Current,Services,,,,RACHELW,20220125204855,{E68498A6-A8B2-40F4-9D59-61A504D133C5},CO15,Commercial,0-5,Legal Entities,-123.235504,49.25455
VPOI10107,VAD10081,Kabro Salon,,,The Mews,,commercial_services,,http://www.kabrosalon.com/,Phone: (604) 428-4888; Email: info@kabrosalon.com,Daily: 10 am - 6 pm,Y,Non-UBC,Current,Services,,,,RACHELW,20220125203347,{FD08CE4C-9DF1-4451-86F6-BEE83822418A},CO15,Commercial,0-5,Legal Entities,-123.235626,49.254699
VPOI10108,VAD10076,Wesbrook Eyecare,,,The Mews,,retail,,http://wesbrookeyecare.com/,Phone: (604) 558-3937,M-F: 10:30 am - 6 pm; Sat: 11 am - 5 pm; Sun: Closed,Y,Non-UBC,Current,Retail,,,,RACHELW,20220125204740,{F6115622-9329-45E0-AFC7-B9FB4B5C52D4},CO14,Commercial,0-5,Legal Entities,-123.235443,49.254476
VPOI10109,VAD10825,Campus and Community Planning,,,Campus and Community Planning,,campus_services,,https://planning.ubc.ca/vancouver,Phone: (604) 822-8228; Email: info.planning@ubc.ca; Fax: (604) 822-6119,M-F: 8:30 am to 4:30 pm; Sat-Sun: Closed,N,UBC,Current,Civic,,,,RACHELW,20220125205702,{D26D0458-6076-4871-BCB9-2FC5344562B4},,,,Academic,-123.253195,49.26237
VPOI10110,VAD11066,Fido,,,The Mews,,retail,,http://www.fido.ca/,Phone: (604) 307-7775,M-Sat: 10 am - 6 pm; Sun: 11 am - 5 pm,Y,Non-UBC,Current,Retail,,,,RACHELW,20220125210517,{29423668-84F5-4FFD-8704-580624ADE700},CO14,Commercial,0-5,Legal Entities,-123.235868,49.25483
VPOI10112,VAD10831,Building Access (Key Desk),,,UBC Bookstore,,campus_services,,https://parking.ubc.ca/building-access-0,Phone: (604) 822-6786; Fax: (604) 827-2509; Email: parking.support@ubc.ca,M-F: 10 am - 4 pm ; 3rd Th: 11 am - 5:30 pm; Sat-Sun: Closed,N,UBC,Current,Civic,,,,RACHELW,20220125213059,{7C2024FF-4109-4C88-A844-3E6C1789886A},,,,Academic,-123.250621,49.265047
VPOI10113,VAD10563,Mahony and Sons,,,Strangway,,restaurant,,http://mahonyandsons.com/,Phone: (604) 827-4444,,Y,Non-UBC,Retired,,,,,RACHELW,20220125201610,{35FA73FD-A587-4BD9-A726-3D5DC7648FB4},CO6,Commercial,15-20,Legal Entities,-123.246716,49.265965
VPOI10038,VAD10281,Starbucks,,,Fred Kaiser Building,,cafe,,http://www.food.ubc.ca/place/starbucks/,Phone: (604) 827-5779,M-F: 8 am - 5 pm; Sat-Sun: Closed,N,SHCS,Current,Services,,,,RACHELW,20220125205919,{1CEC9032-78EA-41B4-BBDB-DCB93C180CC5},CO4,Commercial,10-15,Legal Entities,-123.250241,49.262346
VPOI10111,VAD10281,"Applied Science, Faculty of",,,Fred Kaiser Building,,faculty/school,,https://apsc.ubc.ca/,Phone: (604) 822-6413; Email: info@apsc.ubc.ca,,N,UBC,Current,Civic,,,,RACHELW,20220125191342,{E68CC851-FC4B-4396-B49B-E391952B0C94},,,,Academic,-123.250076,49.262344
VPOI10114,VAD10559,Triple O's,,,David Lam,restaurant,restaurant,,http://www.food.ubc.ca/place/triple-o/,Phone: (604) 822-3256,Daily: 10 am - 10 pm,N,SHCS,Current,Services,,,,RACHELW,20220125203337,{BE3ECA43-4EDE-4778-9352-29F8C6E57E94},CO3,Commercial,10-15,Legal Entities,-123.254398,49.265889
VPOI10115,VAD10014,Sauder Exchange Cafe,,,Henry Angus Building,cafe,cafe,,http://www.food.ubc.ca/place/sauder-exchange-cafe/,Phone: (604) 827-4783,,N,SHCS,Retired,,,,,RACHELW,20220125201738,{AB3D4ADC-C55E-4DEC-A40C-884DC23D2CEF},CO4,Commercial,5-10,Legal Entities,-123.253728,49.265218
VPOI10116,VAD11030,Tim Hortons,,,David Lam,cafe,cafe,,http://www.food.ubc.ca/place/tim-hortons/,Phone: (604) 822-3256,M-F: 7 am - 4 pm; Sat-Sun: Closed ,N,SHCS,Current,Services,,,,RACHELW,20220125205400,{07E72BB9-B6E5-4E0F-9C3F-370BA5207856},CO4,Commercial,10-15,Legal Entities,-123.254283,49.26578
VPOI10359,VAD10179,Museum of Anthropology,,MOA,Museum of Anthropology,,attraction,,https://moa.ubc.ca/,Phone: (604) 822-5087; Email: info@moa.ubc.ca,Tu-W: 10 am - 5 pm; Th: 10 am - 9 pm; F-Sun: 10 am - 5 pm,,,Current,Civic,,GISSTUD1,20180117190435,RACHELW,20220125212925,{413A4E94-1F32-4FD9-AFF6-E59708793CC4},CO12,Commercial,15-20,Legal Entities,-123.259366,49.269235
VPOI10120,VAD10840,Career Services,,,Brock Hall,,campus_services,,https://students.ubc.ca/about-student-services/centre-student-involvement-careers,Phone: (604) 822-4011,M-F: 9 am - 5 pm; Sat-Sun: Closed,N,UBC,Current,Civic,,,,RACHELW,20220125213146,{381A2C2C-D5E4-4315-A622-0A7AA5F31DD2},,,,Academic,-123.252197,49.268632
VPOI10124,VAD10616,Soup Market,,,"AMS Nest, Level 1",,cafe,,,Phone: (604) 446-2433,M-F: 10 am - 4 pm; Sat-Sun: Closed,N,Non-UBC,Current,Services,,,,RACHELW,20220125204802,{58E83A27-3F54-49B3-A77C-461A7E6170A3},CO4,Commercial,10-15,Legal Entities,-123.249934,49.266746
VPOI10126,VAD11106,The Bike Kitchen,,,Bike Kitchen,,commercial_services,,http://thebikekitchen.com/,"Phone : (604) 827-7333
; Email : bikekitchen@gmail.com",M-F: 10 am - 6 pm; Sat: 11 am - 6 pm; Sun: Closed,N,AMS,Current,Services,,,,RACHELW,20220125204904,{AE25875E-79BD-4A5E-BBEC-1D5A727A6054},CI5,Civic,0-5,Legal Entities,-123.252137,49.268325
VPOI10127,VAD10440,St. Mark's Parish,,,St. Mark's College,,worship,,http://www.stmarksparishvancouver.ca/,Phone: (604) 822-0261; Email: parish.smark@rcav.org,M-Th: 9 am - 4:30 pm ; F-Sun: Closed,N,Non-UBC,Current,Civic,,,,RACHELW,20220125212900,{4015E668-912A-4127-9BC7-086291C4964E},CI1,Civic,0-5,Legal Entities,-123.248943,49.272161
VPOI10128,,One More Sushi ,,,University Village,,restaurant,,http://onemoresushi.ca/,Phone: (604) 228-9772; Fax: (604) 228-9773,M-F: 12 pm - 7:45 pm; Sat-Sun: Closed,N,UEL,UEL,Services,,,,RACHELW,20220125205042,{DAC37D9B-7071-45C1-9235-084AF94B5290},CO2,Commercial,10-15,Legal Entities,-123.242527,49.266024
VPOI10129,,Subway,,,University Village,,cafe,,http://www.food.ubc.ca/place/subway/,Phone: (604) 620-8948,M-F: 7 am - 10 pm; Sat-Sun: 9 am - 10 pm,N,UEL,UEL,Services,,,,RACHELW,20220125205225,{A2E6A5A5-B442-4DA4-9895-1F99489415BC},CO3,Commercial,10-15,Legal Entities,-123.243203,49.265896
VPOI10130,,Booster Juice,,,University Village,,cafe,,http://boosterjuice.com/,Phone: (604) 568-6603,M-Sat: 8 am - 8 pm; Sun: 10 am - 6 pm,N,UEL,UEL,Services,,,,RACHELW,20220125210602,{6AD34C9D-6C74-4765-B5DB-A82F7DB204B8},CO4,Commercial,10-15,Legal Entities,-123.242835,49.266075
VPOI10131,,Only U Cafe,,,University Village,,cafe,,http://www.facebook.com/pages/Only-U-Cafe/431021496919221,Phone: (604) 221-6511,M-F: 9 am - 4 pm; Sat-Sun: 9 am - 3 pm,N,UEL,UEL,Services,,,,RACHELW,20220125210133,{DA6EDE95-BFE1-4213-8589-98BDF024B62F},CO4,Commercial,5-10,Legal Entities,-123.242381,49.265977
VPOI10224,,Mini Super,,,University Village,,minimart,,http://www.facebook.com/pages/Mini-Super-at-UBC/249485448568472?sk=timeline&amp;ref=page_internal,,,N,UEL,Retired,,,,,RACHELW,20220125201613,{87F9A27E-83A9-4BBB-9D0A-A7D9BA6940B5},CO10,Commercial,0-5,Legal Entities,-123.242675,49.266645
VPOI10225,,Suga Sushi,,,University Village,,cafe,,,Phone: (604) 228-9912,,N,UEL,Retired,,,,,RACHELW,20220125201614,{014F9423-88EC-449A-9168-5E6454E1E6A0},CO2,Commercial,10-15,Legal Entities,-123.242579,49.266697
VPOI10177,,McDonald's,,,University Village,,cafe,,http://www.mcdonalds.ca/ca/en.html,Phone: (604) 221-2570,24hrs,N,UEL,UEL,Services,,,,RACHELW,20220125204230,{A6B4ED04-0D19-4506-9D91-9A183E92EC75},CO3,Commercial,10-15,Legal Entities,-123.242512,49.266705
VPOI10132,,Gold's Gym,,,University Village,,commercial_services,,http://goldsgymbc.ca/,Phone: (604) 224-4699; Email: info@goldsgymbc.ca,M-F: 6 am - 10:30 pm; Sat-Sun: 8 am - 8 pm,N,UEL,UEL,Services,,,,RACHELW,20220125205130,{63324E0A-ADB6-4EA6-88EC-12F84D3058CB},CO16,Commercial,10-15,Legal Entities,-123.242308,49.26632
VPOI10180,,H-Mart,,,University Village,,minimart,,http://www.hmart.ca/main/frame.php,,Daily: 9 am - 10 pm,N,UEL,UEL,Food,,,,RACHELW,20220125203602,{FA61C464-2C9E-47F3-BACA-1EA54D64A2C8},CO10,Commercial,5-10,Legal Entities,-123.243084,49.266614
VPOI10133,VAD11103,Farmer's Market,,,Bookstore,,farmers market,,http://ubcfarm.ubc.ca/food-production/farm-markets/,Email: farm.team@ubc.ca,Wed: 10 am - 2 pm (Jun-Nov),N,UBC,Current,Retail,,,,RACHELW,20220125213046,{372E8D82-2F79-484D-9F38-6A1D13279E43},CO9,Commercial,5-10,Legal Entities,-123.250424,49.265438
VPOI10134,VAD10382,English Language Institute (ELI),,,Continuing Studies Building,,department,,https://eli.ubc.ca/,Phone: (604) 822-1555; Fax: (604) 822-1579,M-F: 8:30 am to 4:30 pm; Sat-Sun: Closed,N,UBC,Current,Civic,,,,RACHELW,20220125205713,{59DE3047-7E99-462C-BB4D-70B4274319C0},CI1,Civic,10-15,Legal Entities,-123.254954,49.263365
VPOI10287,VAD10103,UBC Vantage College,Vantage College,,Orchard Commons,,faculty/school,,https://vantagecollege.ubc.ca/,Phone: (604) 827-0337; Email: info@vantagecollege.ubc.ca,Daily: 9 am - 4 pm,N,UBC,Current,Civic,,,,RACHELW,20220125203605,{C0D0B6B5-3BFE-4CC7-8026-4023DE7EE2E4},CI1,Civic,15-20,Legal Entities,-123.250932,49.260072
VPOI10146,VAD10560,Boulevard Coffee,,,David Strangway Building,,cafe,,http://www.theboulevard.ca/index.html,Phone: (604) 827-4488; Email: info@theboulevard.ca,Daily: 7 am - 7 pm; Holidays: 8 am - 6 pm,Y,Non-UBC,Current,Services,,,,RACHELW,20220125203453,{FED3CAFE-ABD3-49B0-87C7-48F9968FBEDC},CO4,Commercial,10-15,Legal Entities,-123.24641,49.266011
VPOI10147,VAD11033,Ami Cafe,,,Djavad Mowafaghian Centre for Brain Health,,cafe,,http://cafeami.ca/cafe-ami-university-of-british-columbia/,Phone: (604) 822-2348; Email: CafeAmiGroup@gmail.com; Fax: (604) 822-2326,M-F: 7 am - 5 pm; Sat-Sun: Closed,N,Non-UBC,Current,Services,,,,RACHELW,20220125205513,{843C6E86-6B37-413A-863A-A566A3EB2415},CO4,Commercial,5-10,Legal Entities,-123.244472,49.264615
VPOI10288,VAD10715,Canada Goose Child Care,Canada Goose,CCS2,Child Care Services - Tillicum/Canada Goose,,child_care,,https://childcare.ubc.ca/,Phone: (604) 822-5343; Email: childcare@housing.ubc.ca; Fax: (604) 822-9195,,N,SHCS,Current,Civic,,,,RACHELW,20220125204347,{BFDCBB41-497B-4D5E-A476-59E6EA6D8B0D},BS6,Social welfare,,Urban Facilities,-123.234805,49.259585
VPOI10031,VAD10111,Caffe Perugia,,,Life Sciences Centre,,cafe,,http://www.food.ubc.ca/place/caffe-perugia,Phone: (604) 827-3291,M-Th: 7:30 am - 5 pm; Fri: 7:30 am - 4 pm; Sat-Sun: Closed,N,SHCS,Current,Services,,,,RACHELW,20220125210736,{45F8AEF7-0D53-46CD-8DD8-A872BAAF2706},CO4,Commercial,5-10,Legal Entities,-123.244823,49.262252
VPOI10408,,CIBC,,,University Village,,bank,,https://locations.cibc.com/bc/vancouver/05800?utm_source=google&utm_medium=distrib&utm_campaign=google-distrib,Phone: (604) 221-3550; Fax: (604) 224-5781; Toll-free: 1-800-465-2422,M-S: 9:30 am - 5 pm; Sun: Closed,N,UEL,UEL,Services,,,,RACHELW,20220125212231,{40AA7547-784E-4092-97DE-8C4A189D08C9},CO5,Commercial,10-15,Legal Entities,-123.243781,49.26641
VPOI10033,VAD10420,Bodyworks Fitness Centre,,,Robert F. Osborne Centre - Unit 1,,athletics,,https://kin.educ.ubc.ca/outreach/body-works/,Phone: (604) 827-5059; Email: kin.outreach@ubc.ca,M-F: 8:45 am - 4:15 pm; Sat-Sun: Closed,N,KIN,Current,Services,,,,RACHELW,20220125213151,{F67DDA8D-7994-488A-87D8-1042CF0AE03A},CO16,Commercial,5-10,Legal Entities,-123.243701,49.26028
VPOI10289,VAD10687,Acadia Child Care,Acadia,CCS3,Child Care Services - Acadia,,child_care,,https://childcare.ubc.ca/,Phone: (604) 822-5343; Email: childcare@housing.ubc.ca; Fax: (604) 822-9195,,N,SHCS,Current,Civic,<p>Acadia Child Care Services Centre</p> ,,,RACHELW,20220125204337,{EDCF1E78-D4EB-4569-A13D-1079AB27B292},BS6,Social welfare,,Urban Facilities,-123.234755,49.260817
VPOI10307,VAD10616,UBC Women's Center,,,"AMS Nest, Level 2",,campus_services,,https://womenscentre.ams.ubc.ca/about/,,,N,,Current,Civic,,GISSTUD1,20180116231442,RACHELW,20220125201824,{E9D09F8B-62AE-49B2-B04E-2C948629AF45},BS4,Social welfare,,Urban Facilities,-123.249865,49.266446
VPOI10181,,Bubble Waffle Cafe,,,University Village,,cafe,,http://www.bubblewafflecafe.ca/,Phone: (604) 563-5444,,N,UEL,Retired,,,,,RACHELW,20220125201616,{71DB72B2-F92B-4DFA-AB39-8A7781543F85},CO4,Commercial,5-10,Legal Entities,-123.242693,49.266681
VPOI10032,VAD10230,Agora Cafe,,,HR MacMillan Building,,cafe,,http://blogs.ubc.ca/agora/,Phone: (604) 822-4651; Email: agora.eats@gmail.com,,N,UBC,Retired,,,,,RACHELW,20220125201618,{09CF8C8F-6A4C-46F8-88B2-CB1D7BAB3A4E},CO4,Commercial,5-10,Legal Entities,-123.251127,49.260915
VPOI10168,VAD10827,David Lam Management Research Library,,,David Lam,,library,http://www.infrastructuredevelopment.ubc.ca/rrs2/photos/490.jpg,http://lam.library.ubc.ca/,Information Desk: (604) 822-9400,M-F: 9 am - 5 pm; Sat-Sun: Closed,N,Library,Current,Civic,,,,RACHELW,20220125210155,{68466833-EF22-45F5-9364-1B85BF614879},CU2,Cultural,,Urban Facilities,-123.254611,49.265778
VPOI10169,VAD10226,University Neighbourhoods Association,,,Granite Terrace Office,,campus_services,http://www.infrastructuredevelopment.ubc.ca/rrs2/photos/686.jpg,http://www.myuna.ca/,reception@myuna.ca</br>General Inquiries: (604) 827-5158,M-F: 8:30 am to 4:30 pm; Sat-Sun: Closed,N,UNA,Current,Civic,,,,RACHELW,20220125205704,{F5FD1EEF-7400-49CD-81FA-B4CD5FE716AD},CU1,Cultural,,Urban Facilities,-123.236159,49.255027
VPOI10078,VAD11146,Walter C. Koerner Library,,,Walter C. Koerner Library,,library,http://www.infrastructuredevelopment.ubc.ca/rrs2/photos/515-1.jpg,http://www.library.ubc.ca/koerner,Information Desk: (604) 822-2725,M-Th: 8 am - 8 pm; Fri: 8 am - 5 pm; Sat:10 am - 5 pm; Sun: Closed,N,Library,Current,Civic,,,,RACHELW,20220125210640,{4574B1C0-AF23-4DC8-B084-3376947C2808},CU5,Cultural,,Urban Facilities,-123.255131,49.266655
VPOI10079,VAD10023,"Music, Art & Architecture LIbrary",,,Irving K. Barber,,library,http://www.infrastructuredevelopment.ubc.ca/rrs2/photos/516.jpg,http://barber.library.ubc.ca/,Phone: (604) 822-3943; Email: maa.library@ubc.ca; Fax: (604) 822-3779,M-Th: 9 am - 7 pm; Fri: 9 am - 5 pm; Sat: 10 am - 5 pm; Sun: Closed ,N,Library,Current,Civic,,,,RACHELW,20220125211358,{9F4C9446-C9E1-45BD-9FE2-56FC9E54AF5F},CU2,Cultural,,Urban Facilities,-123.252976,49.267876
VPOI10419,,Norma Rose Point School,,,Norma Rose Point School,,school,,http://go.vsb.bc.ca/schools/normarosepoint/Pages/Default.aspx,Phone: (604) 713-5950; Email: rosepoint@vsb.bc.ca; Fax: (604) 713-5932,M-F: 8:15 am - 3:30 pm; Sat-Sun: Closed,N,VSB,UEL,Civic,,,,RACHELW,20220125205640,{BA7C8DD0-8DD5-4345-9F28-6933BAF41C1E},ED2,Education,,Urban Facilities,-123.232229,49.262027
VPOI10080,VAD10226,Village Gate Homes (Rental Housing) ,,,Granite Terrace Office,,campus_services,,https://www.villagegatehomes.com/,Phone: (778) 945-5100; Email: info@villagegatehomes.com,M-F: 8:30 am to 4:30 pm; Sat-Sun: Closed,N,UBCPT,Current,Civic,,,,RACHELW,20220125205705,{2BB9C532-7AEB-4508-98D0-BF994EACE365},,,,,-123.236051,49.255071
VPOI10082,VAD10023,Rare Books and Special Collections,,,Irving K. Barber,,library,http://www.infrastructuredevelopment.ubc.ca/rrs2/photos/516.jpg,http://rbsc.library.ubc.ca/,Phone: (604) 822-2521,M-F: 10 am - 4 pm; Sat-Sun: Closed,N,Library,Current,Civic,,,,RACHELW,20220125204807,{1A440388-BE5D-4BD6-8717-36A955D5E92B},ED4,Education,,Urban Facilities,-123.252976,49.267876
VPOI10083,VAD10023,UBC Archives,,,Irving K. Barber,,library,http://www.infrastructuredevelopment.ubc.ca/rrs2/photos/516.jpg,http://archives.library.ubc.ca/,Phone: (604) 822-5877; Email: http://archives.library.ubc.ca/contact-us/; Fax: (604) 822-9587,M-F: 10 am - 4 pm; Sat: 12 pm - 5 pm (Oct-Apr),N,Library,Current,Civic,,,,RACHELW,20220125204814,{55A56026-523F-48F5-801D-E9104ECD9186},ED4,Education,,Urban Facilities,-123.252976,49.267876
VPOI10084,VAD11141,Neptune Chinese Kitchen,,,Village Square,,restaurant,,https://www.neptunegroup.ca/ck-ubc,Phone: (604) 559-7098,M-Sa: 11 am - 12 am; Sun: Closed,Y,Non-UBC,Current,Services,,,,RACHELW,20220125210505,{67C359FB-AFAC-49AB-8ECC-702F52617800},CO2,Commercial,15-20,Legal Entities,-123.235952,49.254185
VPOI10085,VAD10616,Gallery Patio and Lounge,,,"AMS Nest, Level 4",,restaurant,,http://www.ams.ubc.ca/foodanddrink/gallery/,Phone: (604) 827-5660,M-F: 11 am - 10 pm; Sat-Sun: Closed,N,AMS,Current,Services,,,,RACHELW,20220125205515,{DAE45555-1FD3-4206-B5BD-9399CB7EE42F},CO2,Commercial,15-20,Legal Entities,-123.250066,49.266714
VPOI10088,,Dollar "N" Plus ,,,University Village,,retail,,https://www.vancouverdollarstore.ca/,Phone: (604) 228-9818,Daily: 9 am - 9 pm,N,UEL,UEL,Retail,,,,RACHELW,20220125203611,{0F3B00D4-6349-49D9-8914-43BDC29348FD},CO14,Commercial,5-10,Legal Entities,-123.242181,49.266045
VPOI10089,VAD11143,Shoppers Drug Mart,,,Village Square,,retail,,https://stores.shoppersdrugmart.ca/en/store/2247/?utm_source=G&utm_medium=lpm&utm_campaign=LPM%20_SDM,Phone: (604) 224-3086,M-Sat: 8 am - 12 am; Sun: Closed,Y,Non-UBC,Current,Retail,,,,RACHELW,20220125210501,{E4AE09ED-4C63-4150-B05D-C7AB72064370},CO7,Commercial,10-15,Legal Entities,-123.236495,49.254067
VPOI10183,,Arthur Lord Field,Arthur Lord ,,,field,field,,,,,N,Athletics,Current,Services,,,,RACHELW,20220125202653,{EB0EC6E2-FEA2-4D72-A5A3-95DCD1075E15},DE4,Sports,,Urban Facilities,-123.240254,49.259125
VPOI10190,,South Turf Field,Soccer,,,field,field,,,,,N,Athletics,Current,Services,,,,RACHELW,20220126210239,{F14A8CF4-B5C9-4126-87D8-FA3F123EC6C0},DE4,Sports,,Urban Facilities,-123.241074,49.256638
VPOI10191,,Tourmaline West Baseball Stadium,Baseball,,,field,field,,https://sportfacilities.ubc.ca/thunderbird-park/,Phone: (604) 827-2764; Fax: (604) 822-6011,M-F: 8 am - 11 pm; Sat: 8 am - 8 pm; Sun: 8 am - 11 pm,N,Athletics,Current,Services,,,,RACHELW,20220126210908,{A9B1FEF1-5E98-4355-BFA9-36326662851B},DE4,Sports,,Urban Facilities,-123.240605,49.255756
VPOI10387,VAD11120,Centre for Sustainable Food Systems at UBC Farm,UBC Farm Centre,,UBC Farm,,attraction,http://ubcfarm.ubc.ca/wp-content/uploads/2010/05/Picture-043.jpg,http://ubcfarm.ubc.ca,Email: farm.team@ubc.ca</br>Phone: (604) 822-5092; Fax: (604) 822-6839,Daily: 9 am - 5 pm,N,UBC,Current,Civic,,,,RACHELW,20220126211150,{543E7F4F-D71E-4A61-BC5C-4E476DD88FA1},DE5,Sports,,Urban Facilities,-123.23862,49.250585
VPOI10195,,NSDC Grass Field,Varsity,,,field,field,,,,,N,Athletics,Current,Services,,,,RACHELW,20220126210450,{A0AC36D8-C321-484E-A3A3-38F7F2516ED0},DE4,Sports,,Urban Facilities,-123.240435,49.257893
VPOI10196,,NSDC Grass Field,Chris Spencer,,,field,field,,,,,N,Athletics,Current,Services,,,,RACHELW,20220126210500,{9F30D8E7-1C70-4240-A20F-CC9F847456D3},DE4,Sports,,Urban Facilities,-123.239548,49.258146
VPOI10207,VAD10184,Education Library,,,Scarfe,,library,http://www.infrastructuredevelopment.ubc.ca/rrs2/photos/234.jpg,http://education.library.ubc.ca/,Information Desk: (604) 822-3767,M-Th: 8 am - 8 pm; Fri: 8 am - 5 pm; Sat:10 am - 5 pm; Sun: Closed,N,Library,Current,Civic,,,,RACHELW,20220125210642,{A12C179F-2503-46B8-A1C2-105B147995F8},CU2,Cultural,,Urban Facilities,-123.253356,49.263796
VPOI10209,VAD10082,Wesbrook Village Welcome Centre,,,Tapestry,,attraction,,http://www.discoverwesbrook.com/,Phone: (604) 228-2025; Email: info@discoverwesbrook.com,Daily: 10 am - 6 pm,N,UBCPT,Current,Civic,,,,RACHELW,20220125203350,{337BADCF-2A27-4CF8-8BF7-35C8CB1A02DF},CU1,Cultural,,Urban Facilities,-123.234808,49.254162
VPOI10211,VAD10023,The Chung Collection Exhibition,,,Irving K. Barber,,attraction,,http://chung.library.ubc.ca/,Phone: (604) 822-2521; Email: chung.collection@ubc.ca,M-F: 10 am - 4 pm; Sat: 12 pm - 5 pm (Sept - Apr),N,Library,Current,Civic,,,,RACHELW,20220125204819,{29CFE08B-954B-49AE-BB36-9213615AA945},CU3,Cultural,,Urban Facilities,-123.25278,49.267556
VPOI10213,VAD10479,Woodward Library,,,Woodward Library,,library,http://www.infrastructuredevelopment.ubc.ca/rrs2/photos/536.jpg,http://www.library.ubc.ca/bmb/,Information Desk: (604) 822-2883,M-Th: 8 am - 8 pm; Fri: 8 am - 5 pm; Sat:10 am - 5 pm; Sun: Closed,N,Library,Current,Civic,,,,RACHELW,20220125210641,{EEC6A580-7E5A-4F79-9928-99D957DCE1B3},CU2,Cultural,,Urban Facilities,-123.247504,49.264598
VPOI10214,VAD10023,UBC Library,,,Irving K. Barber,,library,http://www.infrastructuredevelopment.ubc.ca/rrs2/photos/516.jpg,http://www.ikebarberlearningcentre.ubc.ca/,Information Desk: (604) 822-2725,"M,Th,Fri: 9 am - 5 pm; Tu-W: 9 am - 8 pm; Sat: 12 pm - 5 pm; Sun: Closed",N,Library,Current,Civic,,,,RACHELW,20220125212840,{2E674360-C124-4F3B-89B2-4F5C46D42714},CU5,Cultural,,Urban Facilities,-123.252705,49.267556
VPOI10308,VAD10616,Porch,,,"AMS Nest, Level 1",,cafe,,http://www.ams.ubc.ca/foodanddrink/porch/,,,N,,Retired,,,GISSTUD1,20180117190927,RACHELW,20220125201821,{ED9ECE9F-F225-4A5D-B4DF-C278A6FF9160},CO4,Commercial,5-10,Legal Entities,-123.249221,49.266214
VPOI10215,VAD10415,UBC Welcome Centre,,,Alumni Centre,,campus_services,,http://welcomecentre.ubc.ca/,Phone: (604) 822-3313; Email: alumni.ubc@ubc.ca,M-Sat: 10 am - 4 pm; Sun: Closed,N,UBC,Current,Civic,,,,RACHELW,20220125210500,{DAA7EEA2-3453-4534-9E97-5A2449759D40},CU1,Cultural,,Urban Facilities,-123.249718,49.266021
VPOI10373,VAD11034,Convergent Manufacturing Technologies,,,Donald Rix,,commercial_services,,,,M-F: 9 am - 5 pm; Sat-Sun: Closed,,,Current,Services,,GISSTUD1,20180719232313,RACHELW,20220125211029,{4FEC893A-4ACB-4CB8-B54E-994F48A9AC24},CO17,Commercial,,Legal Entities,-123.246461,49.262032
VPOI10217,VAD10616,Blue Chip Cafe,,,"AMS Nest, Level 1",cafe,cafe,,https://www.ams.ubc.ca/the-nest/eat/,Phone: (604) 822-6999; Email: bluechipsup@ams.ubc.ca,M-F: 7 am - 7 pm; Sat-Sun: 9 am - 5 pm,N,AMS,Current,Services,,,,RACHELW,20220125205418,{C8BCCFE9-454C-435E-8897-C316C97D47E2},CO4,Commercial,10-15,Legal Entities,-123.24981,49.266751
VPOI10218,VAD10078,Careville Pharmacy,,,The Mews,,pharmacy,,https://www.carevilleubc.ca/,Phone: (604) 800-0223; Email: info@careville.ca,M-F: 9 am - 6 pm; Sat: 9 am - 5 pm; Sun: Closed,Y,Non-UBC,Current,Retail,,,,RACHELW,20220125210331,{1C1ECF52-CD3F-4F2A-BE0D-0BA3398773EC},CO7,Commercial,5-10,Legal Entities,-123.235675,49.254776
VPOI10219,VAD11098,AHVA Gallery,Audain Art Centre,,Ponderosa Commons East - Audain Art Centre,attraction,attraction,,https://ahva.ubc.ca/ahva-gallery-home/,Phone: (604) 822-4563; Email: ahva.gallery@ubc.ca; Fax: (604) 822-9003,M-F: 12 pm - 4 pm (Sept-Apr),N,UBC,Current,Civic,,,,RACHELW,20220125213040,{E3AB0761-F5E2-48B4-B715-0C648609D512},CO12,Commercial,0-5,Legal Entities,-123.254563,49.263866
VPOI10317,VAD10080,Magnussen School,,,TEF3,,school,,http://www.eatonarrowsmith.com/,Phone: (604) 264-8327,M-F: 8 am - 5 pm; Sat-Sun: Closed,,,Current,Civic,,GISSTUD1,20180117190435,RACHELW,20220125205919,{FC20DFC8-5CBE-4522-AC3A-432D6B8A9AF0},ED1,Education,,Urban Facilities,-123.246443,49.26127
VPOI10311,VAD10080,Eaton Arrowsmith School,,,TEF3,,school,,http://www.eatonarrowsmith.com/,Phone: (604) 264-8327,M-F: 8 am - 5 pm; Sat-Sun: Closed,,,Current,Civic,,GISSTUD1,20180704225743,RACHELW,20220125205920,{63C777E3-C30B-4612-AFCA-8E0AB8438305},ED2,,,Urban Facilities,-123.246383,49.261285
VPOI10320,VAD10090,Uncle Fatih's Pizza,,,Central,,restaurant,,http://orders.unclefatih.com/zgrid/themes/10788/intro/index.jsp,Phone: (604) 428-6253,W-Sat: 11 am - 12 am; Sun-Tu: 11 am - 11 pm,Y,,Current,Services,,GISSTUD1,20180719182209,RACHELW,20220125212933,{DDA4FE06-227E-42B8-8929-9CB642EBC063},CO3,Commercial,10-15,Legal Entities,-123.247505,49.266209
VPOI10357,VAD11138,PhysioWorks,,,Village Square,,medical,,http://ptworks.ca/,Phone: (604) 566-2222,M-F: 7 am - 7 pm; Sat: 9 am - 2 pm,,,Current,Civic,,GISSTUD1,20180706191934,RACHELW,20220125205425,{06878151-F29D-42A8-963F-ACFDE66248B1},SD2,Health,,Urban Facilities,-123.236189,49.254102
VPOI10382,VAD10181,S2G Biochemicals Inc,,,NRC Institute for Fuel Cell Innovation,,commercial_services,,,Phone: (604) 221-8670,M-F: 8 am - 4 pm; Sat-Sun: Closed,,,Current,Services,,GISSTUD1,20180712225738,RACHELW,20220125205910,{1825AC6D-AFBE-4AA6-80EF-D17CF174F42B},CO17,Commercial,,Legal Entities,-123.232476,49.245269
VPOI10281,VAD11034,Motion Metrics International,,,Donald Rix,,commercial_services,,http://www.motionmetrics.com/,Phone: (604) 822-5842,M-F: 9 am - 5 pm; Sat-Sun: Closed,,,Current,Services,,GISSTUD1,20180712211934,RACHELW,20220125210149,{254D8D3D-D53C-4997-B232-AFFF8A23B366},CO17,Commercial,,Legal Entities,-123.246484,49.262115
VPOI10380,VAD10033,PI Pharma Inventor Inc,,,3800 Wesbrook Mall,,commercial_services,,http://www.pharmainventor.com/index.html,Phone: (604) 339-3244,M-F: 8 am - 5 pm; Sat-Sun: Closed,,,Current,Services,,GISSTUD1,20180712211444,RACHELW,20220125205921,{E1299E85-325E-4A80-8B19-52468F7EA228},CO17,Commercial,,Legal Entities,-123.230842,49.2502
VPOI10381,VAD11034,Renaissance Bioscience Corp,,,Donald Rix,,commercial_services,,,,M-F: 9 am - 5 pm; Sat-Sun: Closed,,,Current,Services,,GISSTUD1,20180712205555,RACHELW,20220125210150,{C765E805-B039-4037-9C73-1550BBC505F9},CO17,Commercial,,Legal Entities,-123.246287,49.261948
VPOI10150,VAD11083,Seedlings,,,Thea Koerner House,,restaurant,,http://www.ubcsprouts.ca/seedlings/,Email: info@ubcsprouts.ca,M-F: 9:30 am - 4 pm; Sat-Sun: Closed,N,Non-UBC,Current,Services,,,,RACHELW,20220125210047,{37B3B24D-2FB0-4145-A109-1C0FC64DAC25},CO2,Commercial,0-5,Legal Entities,-123.257832,49.268322
VPOI10151,VAD11030,TBD,,,David Lam,,cafe,,,,,N,SHCS,Pending,,,,,RACHELW,20220125201738,{02DA7E22-B492-4785-96BB-04C23EF2144F},,,,,-123.254283,49.26578
VPOI10153,VAD10616,The Pit,,,"AMS Nest, Lower Level",,restaurant,,http://www.the-pit.ca/,,,N,AMS,Retired,,,,,RACHELW,20220125201621,{5DED41C4-AD99-432F-A8FD-D78340DD46D6},CO6,Commercial,15-20,Legal Entities,-123.250105,49.266761
VPOI10154,VAD10080,Fit For Life,,,TEF3,,minimart,,fitforlifefood.com,,M-Sat: 8 am - 8:30 pm; Sun: 9 am - 6:30 pm,Y,Non-UBC,Current,Food,,,,RACHELW,20220125210556,{B12C92AD-DD9A-4914-9A0B-D4CD6C8AEB35},CO10,Commercial,0-5,Legal Entities,-123.246477,49.26134
VPOI10155,VAD10616,INS Market,,,"AMS Nest, Lower Level",,minimart,,,Phone:(778) 378-9686,M-F: 8 am - 8 pm; Sat: 12 - 8 pm; Sun: Closed,N,Non-UBC,Current,Food,,,,RACHELW,20220125205454,{7196B95C-BC60-4905-AFD7-F34DD9932076},CO10,Commercial,5-10,Legal Entities,-123.249792,49.266573
VPOI10074,VAD10616,Delly,,,"AMS Nest, Lower Level",,cafe,,http://thedelly.com/,Phone:(604) 228-8121; Email: eat@thedelly.com,M-F: 9 am - 7 pm; Sat-Sun: Closed,N,Non-UBC,Current,Services,,,,RACHELW,20220125172924,{96213968-CA27-4923-ADE4-4ED848AD279F},CO2,Commercial,10-15,Legal Entities,-123.249593,49.266497
VPOI10212,VAD10180,Music Library,,,Music Building,,library,http://www.infrastructuredevelopment.ubc.ca/rrs2/photos/575.jpg,http://music.library.ubc.ca,Information Desk: (604) 822-3589,M-F: 9 am - 5 pm; Sat-Sun: Closed,N,Library,Current,Civic,,,,RACHELW,20220125210156,{3EFE7CDA-940D-4BFE-B292-89F36DC21806},CU2,Cultural,,Urban Facilities,-123.256713,49.267347
VPOI10290,VAD10357,Xwi7xwa Library,,,First Nations Longhouse,,library,http://www.infrastructuredevelopment.ubc.ca/rrs2/photos/337.jpg,http://xwi7xwa.library.ubc.ca/,Information Desk: (604) 822-8738,M-F: 9 am - 5 pm; Sat-Sun: Closed,N,Library,Current,Civic,,,,RACHELW,20220125210157,{20820226-A8AB-44B4-B692-0CFDEF16FE83},CU2,Cultural,,Urban Facilities,-123.256614,49.265482
VPOI10365,VAD10033,Alpha Nanotech Inc.,,,3800 Wesbrook Mall,,commercial_services,,https://www.alphananotechne.com/,Phone: (877) 419-0711; Email: info@alphananotechne.com,M-F: 9 am - 6 pm; Sat - Sun: 10 am - 4 pm,,,Current,Services,,GISSTUD1,20180712231010,RACHELW,20220125210311,{8E1EFB80-7DED-48B1-9232-A07DA920C2FB},CO17,Commercial,,Legal Entities,-123.230906,49.250034
VPOI10075,VAD10184,Neville's Cafe,Neville's,,Scarfe,,cafe,,http://www.food.ubc.ca/place/nevilles/,Phone: (604) 827-3325,,N,SHCS,Retired,,,,,RACHELW,20220125201738,{08C9BB9A-33B0-41EA-9D62-AA050F035C7D},CO4,Commercial,5-10,Legal Entities,-123.253132,49.264216
VPOI10077,VAD11095,Magda's Mini Mart,,,Totem Park Residence,,minimart,,http://www.food.ubc.ca/place/magdas/,Phone: (604) 822-4221,Daily: 4 pm - 11:30 pm,N,SHCS,Current,Food,,,,RACHELW,20220125201738,{4E99CD59-93BB-49F9-A0C1-2D46D4C32D5B},CO10,Commercial,0-5,Legal Entities,-123.252812,49.25788
VPOI10091,VAD11106,Food Court,Food Court,,Life Building,restaurant,restaurant,,,,,N,SHCS,Current,Services,,,,RACHELW,20220125201738,{EAFB3E66-E4B0-4F95-8BE9-21787EAF0C0A},CO2,Commercial,10-15,Legal Entities,-123.24976,49.267392
VPOI10092,VAD10080,Starbucks,,,TEF3,,cafe,,http://www.food.ubc.ca/place/starbucks/,Phone: (604) 221-6434,M-F: 7 am - 6 pm; Sat: 9:30 am - 5 pm,N,SHCS,Current,Services,,,,RACHELW,20220125204605,{8F326C48-E886-46E6-B9BD-E0521BA45E34},CO4,Commercial,10-15,Legal Entities,-123.246604,49.261228
VPOI10093,VAD10841,Stir It Up,,,Buchanan Building,cafe,cafe,,http://www.food.ubc.ca/place/stir-it-up-cafe/,Phone: (604) 822 2002,W-Fri: 7:30 am - 3 pm; Sat-Tu: Closed ,N,SHCS,Current,Services,,,,RACHELW,20220125212731,{F442B712-D1C2-4D47-895B-6A97936B865C},CO4,Commercial,5-10,Legal Entities,-123.254858,49.268511
VPOI10094,VAD10616,Pie R Squared,,,"AMS Nest, Level 1",,cafe,,http://www.ams.ubc.ca/foodanddrink/piersquared/#,Email: pier2@ams.ubc.ca,,N,AMS,Retired,,,,,RACHELW,20220125201626,{8B958808-DA93-4499-AF51-D4DD136C5ACC},CO3,Commercial,10-15,Legal Entities,-123.249873,49.266236
VPOI10095,VAD10616,Grand Noodle Emporium,,,"AMS Nest, Lower Level",,cafe,,http://www.ams.ubc.ca/foodanddrink/grandnoodle/,Phone: (604) 822-3164 ; Email: grandnoodle@ams.ubc.ca,M-F: 10:30 am - 3 pm; Sat-Sun: Closed,N,AMS,Current,Services,,,,RACHELW,20220125173141,{19D79BC1-5F50-4EA9-883E-8885AF4B3BD9},CO2,Commercial,10-15,Legal Entities,-123.249901,49.266707
VPOI10098,VAD10616,Palate,,,"AMS Nest, Level 1",,cafe,,http://www.ams.ubc.ca/foodanddrink/palate/,,,N,AMS,Retired,,,,,RACHELW,20220125201627,{8EF5DE45-F9A0-446F-9A55-1CB8187D30AA},CO4,Commercial,5-10,Legal Entities,-123.250001,49.266824
VPOI10353,VAD10421,Kids Club Jr. Child Care,Kids Club Jr. ,,Sopron House,,child_care,,https://childcare.ubc.ca/,Phone: (604) 822-5343; Email: childcare@housing.ubc.ca; Fax: (604) 822-9195,,N,SHCS,Current,Civic,<p>Kids Club Jr. Child Care Services Centre</p>,,,RACHELW,20220125201736,{1998222A-E16A-43F4-A4DA-2BDEC0A9B56D},BS6,Social welfare,,Urban Facilities,-123.235445,49.26215
VPOI10267,VAD10377,UBC Press,University of British Columbia Press,,Ponderosa Annex B,,campus_services,,http://www.ubcpress.ca/index.html,Phone: (604) 822-5959; Email: frontdesk@ubcpress.ca; Fax: (604) 822-6083,M-F: 8 am - 9 pm; Sat-Sun: Closed,N,UBC,Current,Civic,,,,RACHELW,20220125210016,{F5C84360-F903-4C8F-AE21-B31DED2C1AA0},,,,Academic,-123.255966,49.264838
VPOI10368,VAD10042,Commercial Dog Walker Heart and Hound,,,Tamarack House,,commercial_services,,,,,Y,,Current,Services,,GISSTUD1,20180712230648,RACHELW,20220125202002,{B45AF266-FF66-45A6-BA81-6573EE74CDE2},,,,,-123.246372,49.259672
VPOI10356,VAD10774,Faculty Staff Housing and Relocation Services,,,Wesbrook Professional Centre,,campus_services,,http://www.hr.ubc.ca/housing-relocation/,Phone: (604) 822-6115,,,,Current,Civic,,GISSTUD1,20180712225355,RACHELW,20220125191849,{77C8CCB7-62C3-404C-8437-F05796BE18DF},,,,Academic,-123.236501,49.254539
VPOI10266,VAD10103,Hummingbird Child Care,Hummingbird ,,Orchard Commons,,child_care,,https://childcare.ubc.ca/,Phone: (604) 822-5343; Email: childcare@housing.ubc.ca; Fax: (604) 822-9195,,N,SHCS,Current,Civic,,,,RACHELW,20220125201736,{8518C0BD-93B5-4795-A2A8-19B3163A5FDF},BS6,Social welfare,,Urban Facilities,-123.250562,49.260204
VPOI10424,,Chinook,Chinook Child Care,,Norma Rose Point School,,child_care,,https://childcare.ubc.ca/,Phone: (604) 822-5343; Email: childcare@housing.ubc.ca; Fax: (604) 822-9195,,N,SHCS,UEL,Civic,,,,RACHELW,20220125201737,{DB48F973-89CB-4518-ACCC-3C1F5DE39A76},BS6,Social welfare,,Urban Facilities,-123.23331,49.261847
VPOI10268,VAD10281,Engineering,,,Fred Kaiser Building,,department,,https://engineering.ubc.ca/,,,N,UBC,Current,Civic,,,,RACHELW,20220125191343,{9BF73A4C-37EE-4808-B8F4-9E37B83F93A7},,,,Academic,-123.250147,49.262465
VPOI10269,VAD11030,Robert H. Lee Graduate School ,,,David Lam,,department,,http://www.sauder.ubc.ca/About/Place/Robert_H_Lee_Graduate_School,Phone: (604) 822-8500; Fax: (604) 822-8468,,N,UBC,Current,Civic,,,,RACHELW,20220125191451,{5E32DEDB-E9FA-46F9-A358-8968F25EE9D6},,,,Academic,-123.254147,49.265619
VPOI10270,VAD10831,UBC Parking Services,,,Bookstore,,campus_services,,https://parking.ubc.ca/,Phone: (604) 822-6786; Email: parking.support@ubc.ca; Fax: (604) 827-2509,M-F: 9:30 am - 5:3 0pm; Sat-Sun: Closed,N,Parking,Current,Civic,,,,RACHELW,20220125213209,{5B01C090-F5F0-4199-9FB1-6C81077A13EB},,,,Academic,-123.250699,49.264878
VPOI10271,VAD10831,UBC Carding Office,,,UBC Bookstore,,campus_services,,http://ubccard.ubc.ca/,Phone: (604) 827-5900; Email: ubc.card@ubc.ca,"M,Tu,Th,Fri: 9:30 am - 5:30 pm; Wed: 9:30 am - 7 pm; Sat: 11 am - 5 pm",N,UBC,Current,Civic,,,,RACHELW,20220125212807,{63DB81B7-07BB-4013-A878-DC1B58BF0A43},,,,Academic,-123.250497,49.265269
VPOI10375,VAD10605,Student Housing and Community Services,SHCS Office,,Marine Drive Residence,service,campus_services,,http://vancouver.housing.ubc.ca/,Phone: (604) 822-2812; Email: yearround@housing.ubc.ca; Fax: (604) 822-6935,M-F: 8:30 am to 4:30 pm; Sat-Sun: Closed,N,SHCS,Current,Civic,,,,RACHELW,20220125205712,{5E7237EC-FA1F-469B-BDE8-EE5BEC28DFA6},,,,Academic,-123.255587,49.261171
VPOI10272,VAD10605,UBC Food Services Administration,,,Marine Drive Residence,,campus_services,,www.food.ubc.ca,Phone: (604) 822-3663; Email: food.services@ubc.ca; Fax: (604) 822-4152,M-F: 8:15 am - 5 pm; Sat-Sun: Closed,N,SHCS,Current,Civic,,,,RACHELW,20220125205641,{BE17ECBD-C8DE-49EE-ADB0-68F642F3FDF6},,,,Academic,-123.255544,49.261147
VPOI10376,VAD10863,Huckleberry Child Care,Huckleberry,,Spirit Park Apartments,,child_care,,https://childcare.ubc.ca/,Phone: (604) 822-5343; Email: childcare@housing.ubc.ca; Fax: (604) 822-9195,,N,SHCS,Current,Civic,<p>Huckleberry Child Care Services Centre</p>,,,RACHELW,20220125201737,{677C406F-699C-411A-A2A4-8DEFE3C20767},BS6,Social welfare,,Urban Facilities,-123.239447,49.261151
VPOI10273,VAD10398,"Journalism, School of",,,Sing Tao Building,,faculty/school,,https://journalism.ubc.ca/,Phone: (604) 822-6688,M-F: 8 am - 4 pm; Sat-Sun: Closed,N,UBC,Current,Civic,,,,RACHELW,20220125205911,{7979FAC0-8C03-4A3F-ADED-94340096B172},,,,Academic,-123.257773,49.267812
VPOI10274,VAD10282,"Community and Regional Planning, School of (SCARP)",,,Fredric Lasserre Building,,faculty/school,,https://scarp.ubc.ca/,Phone: (604) 822-3276,M-F: 8:30 am to 4:30 pm; Sat-Sun: Closed,N,UBC,Current,Civic,,,,RACHELW,20220125205709,{49CA1B0C-C583-4F1C-B492-DACD1B222F4F},,,,Academic,-123.256062,49.267561
VPOI10277,VAD10022,Vancouver School of Economics,,,Iona Building,,faculty/school,,http://economics.ubc.ca/,Phone:(604) 822-2876; Fax:(604) 822-5915,M-F: 7:30 am - 9 pm; Sat-Sun: Closed,N,UBC,Current,Civic,,,,RACHELW,20220125205216,{2F18B92B-C696-4CCD-94D7-6933D311C77A},,,,Academic,-123.250374,49.270995
VPOI10293,VAD10490,"Law, Peter A. Allard School of",,,Allard Hall,,faculty/school,,http://www.allard.ubc.ca,Phone: (604) 822-3151; Fax: (604) 822-8108,M-F: 8:30 am to 4:30 pm; Sat-Sun: Closed,N,UBC,Current,Civic,,,,RACHELW,20220125205710,{2562E568-1FBA-4208-96F7-3508709D2C5D},,,,Academic,-123.253515,49.269948
VPOI10294,VAD11095,Totem Park Residence Front Desk,Front Desk,,Totem Park Residence,Front Desk,housing_student,,http://vancouver.housing.ubc.ca/residences/totem-park/,Phone: (604) 822-3304; Email: information@housing.ubc.ca,,N,SHCS,Current,Anchor,,,,RACHELW,20220125201737,{1D24987D-9B27-4382-AB14-A84C6705F909},,,,Academic,-123.253011,49.25803
VPOI10240,VAD10601,Thunderbird Residence Front Desk,Front Desk,,Thunderbird Residence,Front Desk,housing_student,,http://vancouver.housing.ubc.ca/residences/thunderbird/,Phone: (604) 822-1233; Email: yearround@housing.ubc.ca,,N,SHCS,Current,Anchor,,,,RACHELW,20220125201737,{F939A8C1-1478-47B0-B30F-234A66978EBE},,,,Academic,-123.249316,49.25944
VPOI10241,VAD10612,Fairiew Crescent Residence Front Desk,,,Fairview Crescent Residence,Front Desk,housing_student,,http://vancouver.housing.ubc.ca/residences/fairview-crescent/,Phone: (604) 822-3172; Email: information@housing.ubc.ca,,N,SHCS,Current,Anchor,,,,RACHELW,20220125201737,{4A532C3E-30EB-48CE-84A0-7243202CE043},,,,Academic,-123.239711,49.263411
VPOI10318,VAD10412,UBC Studios,,,University Services Building,,campus_services,,http://ubcstudios.ubc.ca/,Phone: (604) 822-9800; Email: ubc.studios@ubc.ca,M-F: 9 am - 5 pm; Sat-Sun: Closed,,,Current,Civic,,GISSTUD1,20180122234414,RACHELW,20220125210150,{E7912E83-D2FD-4B19-9236-B1A4241BE7FD},,,,Urban Facilities,-123.253665,49.260605
VPOI10157,VAD10401,"Population and Public Health, School of (SPPH)",,,SPPH,,faculty/school,,http://spph.ubc.ca/,Phone: (604) 822-2772; Email: info@spph.ubc.ca; Fax: (604) 822-4994,,N,UBC,Current,Civic,,,,RACHELW,20220125202828,{75E4E743-70AC-46DE-B268-8B092CBF115D},,,,Academic,-123.2484,49.264256
VPOI10158,VAD10616,CiTR 101.9 FM,,,"AMS Nest, Level 2",,campus_services,,http://www.citr.ca/,Phone: (604) 822-8648,M-F: 12 pm - 7 pm; Sat: 11 am - 7 pm; Sun:12 pm - 7 pm,N,AMS,Current,Civic,,,,RACHELW,20220125205054,{6A8CF0A9-1991-404C-B0E0-0F44441C1A4D},,,,Academic,-123.249524,49.266415
VPOI10159,VAD10479,UBC IT Audio Visual,,,Woodward - IRC,,campus_services,,https://it.ubc.ca/got-question-about-it-products-and-support,Phone: (604) 822-7956,M-F: 8 am - 4 pm; Sat-Sun: Closed,N,UBC,Current,Civic,,,,RACHELW,20220125211015,{21E1D55A-DBF1-46B9-BFAD-3589DDB46A01},,,,Academic,-123.246666,49.26487
VPOI10160,VAD10439,St. John's College Front Desk,Front Desk,,St. John's College,,housing_student,,http://stjohns.ubc.ca/,Phone: (604) 822-8788; Email: sjc.reception@ubc.ca; Fax: (604) 822-8855,,N,SHCS,Current,Anchor,,,,RACHELW,20220125201736,{92334AA9-4DF0-4A59-A6D1-7285D75499D8},,,,Academic,-123.256231,49.262753
VPOI10161,VAD10605,Marine Drive Residence Front Desk,Front Desk,,Marine Drive Residence,Front Desk,housing_student,,http://vancouver.housing.ubc.ca/residences/marine-drive-residence/,Phone: (604) 827-3242; Email: information.housing@ubc.ca,,N,SHCS,Current,Anchor,,,,RACHELW,20220125201737,{1572F017-1552-4A4B-854E-87CD9017579A},,,,Academic,-123.256759,49.261441
VPOI10162,VAD10106,"Pharmaceutical Sciences, Faculty of",,,Pharmaceutical Sciences Building,,faculty/school,,https://pharmsci.ubc.ca/,Phone: (604) 827-2673; Fax: (604) 822-3035,M-F: 8 am - 6 pm; Sat-Sun: Closed,N,UBC,Current,Civic,,,,RACHELW,20220125205926,{45FF362C-B3F7-43C7-8A6E-16B8AF51059D},,,,Academic,-123.242775,49.262584
VPOI10163,VAD10479,"Medicine, Faculty of",,,Woodward - IRC,,faculty/school,,http://www.med.ubc.ca/,Phone: (604) 822-2421; Email: http://www.med.ubc.ca/about/contact/; Fax: (604) 822-6061,M-F: 8:30 am to 4:30 pm; Sat-Sun: Closed,N,UBC,Current,Civic,,,,RACHELW,20220125205714,{B9216E90-CABC-4B86-AD74-8F3DB7DB89A3},,,,Academic,-123.246793,49.264862
VPOI10164,VAD11040,"Science, Faculty of",,,Earth Sciences Building,,faculty/school,,https://science.ubc.ca/,Phone: (604) 822-3820; Email: advising@science.ubc.ca; Fax: (604) 822-4282,M-F: 9:30 am - 4 pm; Sat-Sun: Closed,N,UBC,Current,Civic,,,,RACHELW,20220125213204,{FAAF0F3D-CED3-47F7-9513-4E86521533D6},,,,Academic,-123.252022,49.263
VPOI10165,VAD10021,Go Global International Learning Programs,,,International House,,campus_services,,https://students.ubc.ca/about-student-services/go-global,Phone: (604) 822-0942; Email: go.global@ubc.ca; Fax: (604) 822-9885,M-F: 9 am - 4:15 pm; Sat-Sun: Closed,N,UBC,Current,Civic,,,,RACHELW,20220125210124,{832D4D0D-026F-4716-9CA0-C9B7786BE113},,,,Academic,-123.258968,49.267803
VPOI10377,VAD11120,Farmers Market,Farmers Market,,UBC Farm,attraction,farmers market,,,,Tu: 4 pm - 6 pm; Sat: 10 am - 2 pm,N,UBC,Current,Retail,,,,RACHELW,20220125212906,{0E2FEA72-0E4B-4F9A-A497-58E27E645CBD},CO9,Commercial,5-10,Legal Entities,-123.237846,49.250699
VPOI10369,VAD10486,University Village Medical and Dental Clinic,,,Yu,,medical,,http://www.universityvillageclinic.com/,Phone: (604) 222-2273,M-F: 8 am - 5 pm; Sat-Sun: Closed,,,Current,Civic,,GISSTUD1,20180117190927,RACHELW,20220125205917,{5827ACFB-EB7B-4FB7-BA68-2A7BA261DD00},SD1,Health,,Urban Facilities,-123.235633,49.253566
VPOI10298,VAD10021,International Student Development,,,International House,,campus_services,,https://students.ubc.ca/about-student-services/international-student-development,Phone: (604) 822-5021; Email: isa@students.ubc.ca/international.house@ubc.ca; Fax: (604) 822-5099,M-F: 9:30 am - 4 pm; Sat-Sun: Closed,N,UBC,Current,Civic,,,,RACHELW,20220125210337,{53889883-7C1E-4E56-A414-631ECF5EC12F},,,,Academic,-123.258968,49.267803
VPOI10300,VAD10080,Human Resources,,,TEF3,,campus_services,,http://www.hr.ubc.ca/,Phone: (604) 822-8111; Email: hr.info@ubc.ca; Fax: (604) 822-8134,M-F: 8:30 am to 4:30 pm; Sat-Sun: Closed,N,UBC,Current,Civic,,,,RACHELW,20220125205711,{9B262A8A-7455-447D-91BB-4A43D1A3011C},,,,Academic,-123.246379,49.261185
VPOI10227,VAD11146,Government Publications and Maps,,,Walter C. Koerner Library,,library,,http://guides.library.ubc.ca/maps-atlases,Phone: (604) 822-0645,,N,Library,Current,Civic,,,,RACHELW,20220125202948,{E475C129-3A9B-48B6-B30C-9BC77A9D29AD},,,,Academic,-123.255136,49.266665
VPOI10297,,University VIllage Medical Clinic,,,University Village,,medical,,http://www.universityvillageclinic.com/,Phone: (604) 222-2273,M-F: 8 am - 5pm; Sat-Sun: Closed,N,UEL,UEL,Civic,,,,RACHELW,20220125175410,{B258A2B3-E108-4171-9ECC-5E1C67BE0863},SD1,Health,,Urban Facilities,-123.242255,49.266342
VPOI10232,VAD10412,Campus Mail,,,University Services Building,,campus_services,,https://campusmail.ubc.ca/,Phone: (604) 822-9495,M-F: 7 am - 4 pm; Sat-Sun: Closed ,N,UBC,Current,Civic,,,,RACHELW,20220125205402,{613C1DB6-FC27-4ADF-9BDE-D365DBC380C4},,,,Academic,-123.253361,49.260699
VPOI10233,VAD11064,A Perfect 10 Nail Spa,,,The Mews,,commercial_services,,https://www.facebook.com/A-Perfect-10-Nail-Spa-UBC-1694617264103471/ ; http://www.discoverwesbrook.com/posts/a-perfect-10-nail-spa#.XXF90yhKjct,Phone: (604) 738-2279,M-Sat: 10 am - 6:30 pm; Sun: Closed,Y,Non-UBC,Current,Services,,,,RACHELW,20220125210508,{EFA67AA5-F705-4C9D-9268-9DBD00C3ACCA},CO15,Commercial,5-10,Legal Entities,-123.235475,49.254515
VPOI10234,VAD10078,Careville Health Clinic,,,The Mews,,medical,,https://www.carevilleubc.ca/,Phone: (604) 259-7744; Email: info@careville.ca,M-F: 9 am - 5 pm; Sat: 9 pm - 3 pm; Sun: Closed,Y,Non-UBC,Current,Civic,,,,RACHELW,20220125210259,{4A5C7763-B6DC-4A77-9BD3-F5D1BD75D6AD},SD1,Health,,Urban Facilities,-123.235675,49.254776
VPOI10235,VAD10071,BierCraft,,,The Mews,,restaurant,,http://biercraft.com/wesbrook-at-ubc/,Phone: (604) 559-2437,Daily: 11 am - 11 pm,Y,Non-UBC,Current,Services,,,,RACHELW,20220125203423,{A895F637-D865-4952-87C3-47AB57BB2283},CO2,Commercial,15-20,Legal Entities,-123.235488,49.25427
VPOI10236,VAD11030,Bento Sushi,,,David Lam Management Research Centre,,cafe,,http://www.food.ubc.ca/place/bento-sushi/,Phone: (604) 822-3256,M-F: 11 am - 8 pm; Sat-Sun: Closed,N,SHCS,Current,Services,,,,RACHELW,20220125205518,{1484FE75-8896-407E-93D8-91091644F682},CO2,Commercial,10-15,Legal Entities,-123.254283,49.26578
VPOI10237,VAD10014,"Business, Sauder School of",,,Henry Angus Building,,faculty/school,,http://www.sauder.ubc.ca/,Phone: (604) 822-8500; Fax: (604) 822-8468,M-F: 8:30 am to 4:30 pm; Sat-Sun: Closed,N,UBC,Current,Civic,,,,RACHELW,20220125205711,{247F67DE-EC59-4A79-A662-78310CE1079D},,,,Academic,-123.253575,49.264917
